     2.11           OBSERVATION DATA    M (MIXED)           RINEX VERSION / TYPE
teqc  2015Nov6      anonyme             20160411 14:58:02UTCPGM / RUN BY / DATE
Linux 2.4.21-27.ELsmp|Opteron|gcc|Linux x86_64|=+           COMMENT
-Unknown-                                                   MARKER NAME
-Unknown-           -Unknown-                               OBSERVER / AGENCY
-Unknown-           U-BLOX              -Unknown-           REC # / TYPE / VERS
-Unknown-           UBLOX           NONE                    ANT # / TYPE
        0.0000        0.0000        0.0000                  APPROX POSITION XYZ
        0.0000        0.0000        0.0000                  ANTENNA: DELTA H/E/N
     1     0                                                WAVELENGTH FACT L1/2
     4    L1    C1    S1    D1                              # / TYPES OF OBSERV
 SNR is mapped to RINEX snr flag value [0-9]                COMMENT
  L1 & L2: min(max(int(snr_dBHz/6), 0), 9)                  COMMENT
  2016     4     1    21     1    0.0010000     GPS         TIME OF FIRST OBS
    17                                                      LEAP SECONDS
                                                            END OF HEADER
 16  4  1 21  1  0.0010000  0 12G04G18G20G29G31S20G10G27G16G08G26G21
  -6970864.469 7  21102661.050          42.000       -2978.609
  -7193904.082 5  23058405.161          35.000        1246.318
  -3742914.288 6  23021249.495          40.000       -1830.627
  29448358.825 5  24306106.025          32.000       -4050.813
  26272649.071 5  25153308.984          35.000       -4488.754
  11430878.561 6  38561144.067          39.000        -904.612
   5777969.040 7  24768573.755          42.000        2657.755
  -6946895.089 7  22324361.874          47.000        1595.047
 -17452819.110 7  20740809.321          47.000          45.717
  10683382.663 7  25197594.199          42.000        2231.460
 -16078720.770 7  20715416.462          47.000       -1949.920
 -10087769.481 7  21518558.371          42.000       -1838.314
 16  4  1 21  2  0.0010000  0 12G04G18G20G29G31S20G10G27G16G08G26G21
  -6791189.749 7  21136851.889          43.000       -3010.255
  -7267970.09016  23044315.454          39.000        1223.194
  -3631899.767 6  23042375.444          39.000       -1869.052
  29691564.16616  24352394.019          37.000       -4054.784
  26541910.05114  25204538.949          29.000       -4489.382
  11485182.815 6  38571478.697          39.000        -904.749
   5618556.303 5  24738261.680          35.000        2656.746
  -7042186.772 7  22306227.678          46.000        1580.893
 -17454562.654 7  20740476.528          47.000          12.472
  10549553.976 7  25172125.274          42.000        2229.304
 -15960656.007 7  20737883.391          47.000       -1985.612
  -9976702.221 7  21539694.895          42.000       -1864.011
 16  4  1 21  3  0.0010000  0 11G04G18G20G29S20G10G27G16G08G26G21
  -6609617.092 7  21171404.385          42.000       -3041.699
  -7340655.655 6  23030481.026          39.000        1200.021
  -3518512.254 6  23063954.976          40.000       -1909.551
  29935051.916 6  24398730.961          38.000       -4060.300
  11539551.590 6  38581826.170          39.000        -906.073
   5459290.057 7  24707932.277          45.000        2653.657
  -7136602.097 7  22288261.300          46.000        1566.180
 -17454265.523 7  20740534.096          47.000         -21.719
  10415918.810 7  25146698.335          43.000        2225.644
 -15840444.528 7  20760758.515          47.000       -2021.328
  -9864062.552 7  21561128.038          42.000       -1890.224
 16  4  1 21  4  0.0010000  0 11G04G18G20G29S20G10G27G16G08G26G21
  -6426185.705 7  21206312.865          44.000       -3072.257
  -7411972.853 6  23016908.526          39.000        1177.353
  -3402789.012 6  23085975.930          41.000       -1948.480
  30178786.02415  24445099.435          32.000       -4068.867
  11593948.834 6  38592176.488          39.000        -907.340
   5300163.030 7  24677652.397          47.000        2650.487
  -7230164.399 7  22270458.152          46.000        1552.180
 -17451946.716 7  20740974.086          47.000         -55.841
  10282451.763 6  25121297.153          41.000        2223.542
 -15718119.072 7  20784036.669          47.000       -2056.608
  -9749890.988 6  21582853.402          41.000       -1915.182
 16  4  1 21  5  0.0010000  0 12G04G18G20G29G31S20G10G27G16G08G26G21
  -6240905.563 7  21241566.964          43.000       -3104.384
  -7481903.747 6  23003599.071          36.000        1153.391
  -3284736.395 7  23108440.502          42.000       -1987.443
  30422762.56416  24491538.915          37.000       -4067.692
  27349021.06314  25358121.422          28.000       -4480.052
  11648381.701 6  38602534.047          39.000        -908.565
   5141198.157 7  24647402.322          46.000        2647.686
  -7322866.564 7  22252814.341          45.000        1537.152
 -17447595.280 7  20741803.006          47.000         -89.664
  10149158.837 6  25095932.790          41.000        2219.909
 -15593682.281 7  20807717.225          47.000       -2092.283
  -9634196.452 7  21604871.720          42.000       -1941.229
 16  4  1 21  6  0.0010000  0 13G04G18G20G07G29G31S20G10G27G16G08G26
                                G21
  -6053783.280 7  21277175.198          42.000       -3133.665
  -7550427.593 5  22990560.652          34.000        1129.523
  -3164359.527 6  23131346.548          40.000       -2025.281
    935261.13114  25566172.602          26.000        1815.729
  30666978.54415  24538011.008          30.000       -4070.925
  27617627.95515  25409236.722          32.000       -4473.776
  11702844.408 6  38612898.900          39.000        -906.799
   4982421.083 7  24617192.366          42.000        2645.585
  -7414699.030 7  22235342.049          46.000        1523.306
 -17441197.546 7  20743020.665          47.000        -123.403
  10016047.259 7  25070605.178          42.000        2216.787
 -15467134.753 7  20831798.316          47.000       -2127.086
  -9516987.209 6  21627173.465          41.000       -1965.521
 16  4  1 21  7  0.0010000  0 12G04G18G20G29G31S20G10G27G16G08G26G21
  -5864829.089 7  21313133.605          43.000       -3165.219
  -7617526.570 5  22977795.311          35.000        1107.314
  -3041666.373 6  23154693.561          38.000       -2064.937
  30911331.89116  24584548.767          39.000       -4075.960
  27886015.13614  25460310.298          28.000       -4471.032
  11757327.991 6  38623267.034          39.000        -908.078
   4823854.69615  24586999.964          32.000        2641.596
  -7505655.028 7  22218031.974          47.000        1508.771
 -17432742.741 7  20744628.406          47.000        -158.320
   9883122.506 7  25045309.150          42.000        2213.651
 -15338480.099 7  20856280.134          47.000       -2162.343
  -9398272.941 6  21649762.126          40.000       -1990.844
 16  4  1 21  8  0.0010000  0 13G04G18G20G07G29G31S20G10G27G16G08G26
                                G21
  -5674062.036 7  21349433.845          43.000       -3194.393
  -7683191.74915  22965293.208          34.000        1082.259
  -2916672.753 6  23178480.616          40.000       -2102.045
    719279.15114  25525259.485          25.000        1768.115
  31156003.013 6  24631099.456          41.000       -4079.497
  28154202.32615  25511331.995          31.000       -4466.402
  11811832.565 6  38633639.060          39.000        -908.360
   4665513.308 7  24556878.114          45.000        2637.367
  -7595735.769 7  22200890.695          47.000        1494.310
 -17422228.442 7  20746628.253          46.000        -192.662
   9750381.458 6  25020046.540          41.000        2210.441
 -15207730.214 7  20881161.091          46.000       -2196.606
  -9278072.424 7  21672640.373          42.000       -2015.765
 16  4  1 21  9  0.0010000  0 12G04G18G20G29G31S20G10G27G16G08G26G21
  -5481472.450 7  21386084.083          43.000       -3224.583
  -7747385.30415  22953077.096          34.000        1058.391
  -2789368.164 7  23202705.636          42.000       -2140.125
  31400909.438 6  24677709.215          38.000       -4083.497
  28422093.39215  25562314.412          32.000       -4463.310
  11866370.881 6  38644015.657          39.000        -908.854
   4507440.488 7  24526799.296          47.000        2632.317
  -7684914.940 7  22183920.655          46.000        1479.453
 -17409625.139 7  20749027.030          46.000        -227.026
   9617849.327 6  24994826.926          41.000        2207.168
 -15074869.800 7  20906443.298          46.000       -2231.574
  -9156376.660 6  21695795.050          39.000       -2040.349
 16  4  1 21 10  0.0010000  0 12G04G18G20G29G31S20G10G27G16G08G26G21
  -5287096.659 7  21423072.629          43.000       -3254.750
  -7810116.40215  22941136.226          33.000        1034.077
  -2659787.080 7  23227365.342          42.000       -2177.739
  31646020.990 6  24724358.167          38.000       -4086.929
  28689691.05515  25613230.465          30.000       -4458.104
  11920925.218 6  38654397.420          39.000        -909.313
   4349633.497 7  24496766.354          45.000        2628.173
  -7773211.113 7  22167119.062          46.000        1464.316
 -17394948.347 7  20751821.595          47.000        -261.712
   9485505.075 7  24969647.170          43.000        2204.815
 -14939928.670 7  20932122.515          46.000       -2265.917
  -9033221.311 6  21719231.565          40.000       -2064.771
 16  4  1 21 11  0.0010000  0 13G04G18G20G07G29G31S20G10G27G16G08G26
                                G21
  -5090952.862 7  21460399.709          43.000       -3284.255
  -7871373.772 5  22929487.682          35.000        1007.996
  -2527944.698 6  23252452.281          41.000       -2216.806
    405941.05415  25465936.109          31.000        1694.184
  31891325.609 7  24771032.438          43.000       -4090.585
  28956969.22315  25664095.773          32.000       -4451.749
  11975498.490 6  38664782.725          39.000        -911.854
   4192109.344 6  24466783.582          41.000        2622.577
  -7860623.535 7  22150485.566          46.000        1449.138
 -17378193.861 7  20755007.359          46.000        -297.210
   9353348.075 7  24944497.514          43.000        2200.606
 -14802917.717 7  20958194.292          46.000       -2301.271
  -8908623.533 6  21742941.402          40.000       -2088.775
 16  4  1 21 12  0.0000000  0 12G04G18G20G29G31S20G10G27G16G08G26G21
  -4893037.618 6  21198262.800          40.000       -3313.622
  -7931127.403 6  22618330.022          38.000         983.057
  -2393837.382 7  22978181.467          43.000       -2253.754
  32136832.803 7  24517959.382          43.000       -4092.956
  29223921.85515  25415102.595          33.000       -4446.564
  12030096.151 6  38375379.624          39.000        -909.986
   4034904.953 6  24137070.495          38.000        2617.282
  -7947131.683 7  21834231.082          46.000        1434.061
 -17359339.218 7  20458804.676          47.000        -332.284
   9221397.928 7  24619594.790          43.000        2197.766
 -14663828.369 7  20684871.932          47.000       -2335.759
  -8782580.437 6  21467137.221          41.000       -2112.797
 16  4  1 21 13  0.0000000  0 12G04G18G20G29G31S20G10G27G16G08G26G21
  -4693335.398 7  21236269.043          42.000       -3342.792
  -7989332.587 6  22607251.682          39.000         957.558
  -2257447.109 7  23004135.298          43.000       -2291.733
  32382564.768 6  24564728.548          36.000       -4096.959
  29490557.07715  25465836.677          31.000       -4441.065
  12084736.640 6  38385778.174          40.000        -910.776
   3878070.956 7  24107234.968          43.000        2611.158
  -8032701.082 7  21817945.265          45.000        1418.904
 -17338347.427 8  20462800.514          48.000        -367.103
   9089687.214 7  24594531.339          42.000        2193.764
 -14522638.374 7  20711738.445          47.000       -2370.615
  -8655075.358 6  21491396.252          40.000       -2137.371
 16  4  1 21 14  0.0000000  0 13G04G18G20G07G29G31S20G10G27G16G08G26
                                G21
  -4491881.784 7  21274605.479          42.000       -3371.668
  -8045997.580 6  22596465.249          39.000         932.348
  -2118809.119 7  23030516.974          43.000       -2329.458
    106507.34414  25109386.873          28.000        1617.979
  32628491.793 6  24611517.014          40.000       -4101.420
  29756831.13815  25516513.593          30.000       -4434.523
  12139403.550 6  38396180.266          40.000        -911.424
   3721606.149 7  24077462.645          43.000        2605.067
  -8117349.246 7  21801838.278          46.000        1403.402
 -17315234.647 7  20467196.049          46.000        -402.193
   8958196.847 6  24569510.414          41.000        2190.152
 -14379377.771 7  20738998.826          46.000       -2404.267
  -8526143.172 6  21515933.073          41.000       -2159.773
 16  4  1 21 15  0.0000000  0 11G04G18G20G29S20G10G27G16G08G26G21
  -4288699.289 6  21313265.267          41.000       -3400.750
  -8101116.856 6  22585977.580          40.000         905.787
  -1977944.039 7  23057322.009          42.000       -2366.373
  32874598.911 6  24658348.425          41.000       -4104.029
  12194078.967 6  38406583.929          40.000        -911.137
   3565523.526 7  24047760.525          42.000        2598.090
  -8201079.627 7  21785904.345          46.000        1388.082
 -17290001.296 7  20472000.077          47.000        -437.997
   8826922.009 6  24544525.174          37.000        2186.332
 -14234062.930 7  20766650.930          46.000       -2438.335
  -8395806.500 6  21540735.574          41.000       -2183.858
 16  4  1 21 16  0.0000000  0 12G04G18G20G07G29S20G10G27G16G08G26G21
  -4083796.497 7  21352259.332          42.000       -3429.783
  -8154669.859 6  22575787.892          39.000         879.983
  -1834858.848 7  23084550.805          43.000       -2403.568
    -85013.34915  25073036.935          30.000        1569.784
  33120885.282 6  24705216.412          37.000       -4106.149
  12248775.290 6  38416993.054          40.000        -911.068
   3409850.945 6  24018134.802          39.000        2591.349
  -8283880.902 7  21770149.503          47.000        1371.978
 -17262635.356 8  20477209.211          49.000        -474.012
   8695872.101 5  24519580.699          34.000        2180.599
 -14086695.634 7  20794695.227          46.000       -2473.644
  -8264070.685 6  21565803.195          40.000       -2207.553
 16  4  1 21 17  0.0000000  0 12G04G18G20G07G29S20G10G27G16G08G26G21
  -3877152.336 7  21391584.968          43.000       -3458.250
  -8206608.548 6  22565907.230          40.000         852.183
  -1689533.204 7  23112205.300          44.000       -2440.268
   -178104.03914  25055310.254          25.000        1537.891
  33367378.62715  24752132.753          32.000       -4109.600
  12303533.914 6  38427415.441          40.000        -913.567
   3254643.756 7  23988603.292          43.000        2582.973
  -8365714.008 7  21754576.248          46.000        1355.981
 -17233095.721 7  20482827.012          47.000        -510.043
   8565085.412 5  24494699.795          35.000        2178.584
 -13937250.229 7  20823133.218          46.000       -2508.133
  -8130915.743 6  21591144.960          40.000       -2231.010
 16  4  1 21 18  0.0000000  0 12G04G18G20G07G29S20G10G27G16G08G26G21
  -3668806.765 7  21431231.269          43.000       -3486.876
  -8256944.550 6  22556318.946          37.000         825.959
  -1542005.336 7  23140280.903          45.000       -2477.565
   -269577.94715  25037921.129          33.000        1511.845
  33614046.97216  24799063.805          36.000       -4112.090
  12358318.754 6  38437838.787          40.000        -914.099
   3099898.515 7  23959155.177          42.000        2575.267
  -8446598.829 7  21739184.214          47.000        1339.511
 -17201401.562 8  20488861.350          48.000        -546.609
   8434539.925 5  24469862.743          34.000        2174.035
 -13785760.446 7  20851960.804          46.000       -2542.261
  -7996379.196 6  21616738.199          37.000       -2254.328
 16  4  1 21 19  0.0000000  0 12G04G18G20G07G29S20G10G27G16G08G26G21
  -3458769.894 6  21471195.426          41.000       -3514.853
  -8305659.634 6  22547057.871          41.000         798.667
  -1392284.427 7  23168771.158          45.000       -2513.747
   -359412.49716  25020828.048          36.000        1483.399
  33860887.718 5  24846033.945          35.000       -4114.762
  12413125.083 6  38448268.817          40.000        -913.487
   2945641.436 6  23929799.287          40.000        2566.198
  -8526525.549 8  21723976.052          49.000        1324.102
 -17167543.804 8  20495303.063          48.000        -582.701
   8304244.084 5  24445057.851          33.000        2169.583
 -13632230.602 7  20881177.023          47.000       -2575.894
  -7860469.951 6  21642604.081          37.000       -2275.494
 16  4  1 21 20  0.0000000  0 12G04G18G20G07G29S20G10G27G16G08G26G21
  -3247039.327 7  21511490.248          42.000       -3543.297
  -8352724.461 6  22538101.844          41.000         770.921
  -1240368.637 7  23197678.473          44.000       -2550.178
   -447575.312 5  25004045.632          33.000        1455.172
  34107910.57115  24893040.627          30.000       -4117.114
  12467972.256 6  38458704.606          40.000        -913.866
   2791910.801 6  23900542.444          41.000        2557.872
  -8605472.569 8  21708951.903          49.000        1308.126
 -17131498.927 7  20502161.452          47.000        -619.198
   8174217.986 6  24420320.737          38.000        2164.769
 -13476653.381 7  20910780.933          45.000       -2609.875
  -7723183.96915  21668714.214          31.000       -2299.367
 16  4  1 21 21  0.0000000  0 12G04G18G20G07G29S20G10G27G16G08G26G21
  -3033647.630 6  21552096.224          41.000       -3570.792
  -8398142.340 7  22529459.082          42.000         743.039
  -1086289.333 7  23226999.288          45.000       -2585.631
   -534066.21815  24987587.791          31.000        1425.966
  34355092.92415  24940079.573          30.000       -4120.498
  12522837.510 6  38469144.425          40.000        -914.752
   2638711.300 7  23871390.930          44.000        2548.521
  -8683451.451 8  21694112.256          48.000        1291.635
 -17093278.519 7  20509433.778          46.000        -654.818
   8044448.243 6  24395628.731          38.000        2160.433
 -13319055.081 7  20940771.401          45.000       -2643.185
  -7584553.104 5  21695105.330          35.000       -2321.760
 16  4  1 21 22  0.0000000  0 12G04G18G20G07G29S20G10G27G16G08G26G21
  -2818618.547 6  21593014.524          41.000       -3598.215
  -8441909.591 7  22521132.868          43.000         715.228
   -930070.197 7  23256726.310          45.000       -2621.849
   -618878.34614  24971471.223          28.000        1399.892
  34602417.25514  24987132.218          27.000       -4122.947
  12577715.891 6  38479589.271          40.000        -915.506
   2486055.450 7  23842342.757          45.000        2539.430
  -8760466.183 8  21679459.308          48.000        1274.996
 -17052887.680 7  20517119.238          45.000        -691.645
   7914930.064 6  24370977.524          37.000        2154.992
 -13159454.613 7  20971141.987          46.000       -2677.390
  -7444598.850 6  21721743.454          36.000       -2345.044
 16  4  1 21 23  0.0000000  0 12G04G18G20G07G29S20G10G27G16G08G26G21
  -2601942.263 6  21634242.844          40.000       -3625.134
  -8483988.081 7  22513121.630          42.000         686.710
   -771701.448 7  23286863.534          46.000       -2657.138
   -701970.17714  24955641.346          29.000        1370.952
  34849904.50714  25034219.345          26.000       -4126.951
  12632641.609 6  38490040.869          40.000        -916.056
   2333990.106 7  23813402.810          43.000        2529.385
  -8836486.507 8  21664989.779          48.000        1258.644
 -17010295.729 7  20525226.382          46.000        -728.320
   7785692.232 6  24346392.122          39.000        2151.132
 -12997836.918 7  21001898.048          46.000       -2710.897
  -7303308.98915  21748620.890          32.000       -2366.782
 16  4  1 21 24  0.0000000  0 12G04G18G20G07G29S20G10G27G16G08G26G21
  -2383619.057 7  21675793.994          44.000       -3651.456
  -8524351.312 7  22505437.636          42.000         658.477
   -611183.284 7  23317407.820          44.000       -2692.785
   -783310.37415  24940162.165          33.000        1340.267
  35097561.22615  25081364.476          34.000       -4129.115
  12687618.583 6  38500502.694          40.000        -917.086
   2182552.256 7  23784587.806          44.000        2518.962
  -8911491.802 8  21650717.002          48.000        1241.618
 -16965483.575 7  20533755.856          47.000        -765.237
   7656753.692 6  24321852.509          37.000        2145.622
 -12834197.083 7  21033038.084          45.000       -2743.708
  -7160682.91815  21775755.839          31.000       -2389.805
 16  4  1 21 25  0.0000000  0 12G04G18G20G07G29S20G10G27G16G08G26G21
  -2163688.205 7  21717644.886          43.000       -3678.843
  -8563009.554 7  22498079.787          42.000         629.469
   -448554.658 7  23348353.285          42.000       -2728.212
   -862906.40315  24925011.293          33.000        1312.642
  35345358.641 5  25128516.308          32.000       -4130.591
  12742628.226 6  38510971.864          40.000        -917.185
   2031740.298 7  23755887.939          42.000        2508.164
  -8985500.165 8  21636634.711          49.000        1224.915
 -16918469.936 7  20542696.353          44.000        -801.736
   7528095.269 5  24297363.100          35.000        2142.685
 -12668568.849 7  21064552.863          44.000       -2777.251
  -7016757.28215  21803152.716          34.000       -2410.155
 16  4  1 21 26  0.0000000  0 12G04G18G20G07G29S20G10G27G16G08G26G21
  -1942159.664 6  21759798.383          41.000       -3705.639
  -8599945.641 7  22491053.753          43.000         601.501
   -283825.437 7  23379702.863          44.000       -2762.847
   -940737.35515  24910196.738          32.000        1282.908
  35593296.19414  25175697.369          29.000       -4134.492
  12797668.365 6  38521444.578          40.000        -917.911
   1881581.869 7  23727314.708          42.000        2497.322
  -9058500.417 8  21622743.989          49.000        1208.456
 -16869245.565 7  20552066.771          46.000        -838.464
   7399726.657 6  24272942.236          38.000        2137.012
 -12500957.321 7  21096449.924          45.000       -2809.705
  -6871538.740 5  21830791.226          35.000       -2431.161
 16  4  1 21 27  0.0010000  0 12G04G18G20G07G29S20G10G27G16G08G26G21
  -1719023.719 6  21802257.310          41.000       -3732.421
  -8635125.849 7  22484360.757          44.000         571.954
   -116987.989 7  23411451.859          45.000       -2797.756
  -1016766.62015  24895733.056          31.000        1255.253
  35841392.69914  25222913.330          27.000       -4135.615
  12852749.052 6  38531926.540          40.000        -917.636
   1732117.995 7  23698874.326          43.000        2484.786
  -9130466.686 8  21609048.482          49.000        1190.704
 -16817783.595 7  20561861.823          47.000        -875.740
   7271671.907 6  24248578.119          39.000        2132.495
 -12331348.956 7  21128726.248          45.000       -2843.396
  -6725017.334 5  21858671.840          34.000       -2453.365
 16  4  1 21 28  0.0010000  0 12G04G18G20G07G29S20G10G27G16G08G26G21
  -1494315.729 7  21845022.070          45.000       -3758.183
  -8668550.803 7  22478003.259          45.000         542.400
     51923.415 7  23443594.288          45.000       -2832.579
  -1090989.13115  24881610.525          31.000        1221.978
  36089609.63314  25270152.972          27.000       -4139.303
  12907863.499 6  38542412.986          40.000        -919.839
   1583363.292 7  23670564.611          42.000        2473.451
  -9201403.372 8  21595550.023          49.000        1173.225
 -16764094.964 7  20572073.551          45.000        -913.777
   7143926.951 6  24224263.038          38.000        2127.039
 -12159772.899 7  21161376.914          44.000       -2875.332
  -6577224.336 6  21886797.787          36.000       -2473.368
 16  4  1 21 29  0.0010000  0 12G04G18G20G07G29S20G10G27G16G08G26G21
  -1268047.823 7  21888079.383          44.000       -3784.031
  -8700208.340 7  22471978.362          45.000         513.152
    222896.152 7  23476128.509          44.000       -2866.179
  -1163389.28415  24867831.518          35.000        1191.549
  36337970.76513  25317414.339          21.000       -4144.528
  12963020.044 6  38552911.247          40.000        -918.874
   1435337.985 7  23642398.249          43.000        2461.182
  -9271305.461 8  21582247.286          48.000        1156.588
 -16708174.748 7  20582718.166          46.000        -950.346
   7016494.734 6  24200011.546          39.000        2121.830
 -11986237.028 7  21194396.164          42.000       -2908.039
  -6428169.281 6  21915160.760          37.000       -2494.415
 16  4  1 21 30  0.0010000  0 12G04G18G20G07G29S20G10G27G16G08G26G21
  -1040246.353 7  21931428.219          42.000       -3809.896
  -8730097.705 7  22466289.713          44.000         483.190
    395903.333 7  23509050.054          43.000       -2899.907
  -1233962.85415  24854402.162          34.000        1160.520
  36586445.00814  25364692.947          28.000       -4142.811
  13018200.472 6  38563412.369          40.000        -920.391
   1288054.027 7  23614368.261          43.000        2447.862
  -9340177.320 8  21569143.202          49.000        1138.719
 -16650030.631 7  20593783.419          46.000        -988.025
   6889369.961 6  24175819.123          39.000        2115.938
 -11810763.137 7  21227790.558          45.000       -2941.357
  -6277875.732 6  21943761.126          38.000       -2514.721
 16  4  1 21 31  0.0010000  0 12G04G18G20G07G29S20G10G27G16G08G26G21
   -810892.775 7  21975072.121          42.000       -3835.482
  -8758172.927 7  22460943.751          43.000         452.874
    570961.889 7  23542363.305          43.000       -2933.882
  -1302658.49515  24841330.030          31.000        1129.245
  36835062.58214  25412010.730          25.000       -4144.084
  13073444.259 6  38573924.101          40.000        -920.565
   1141568.234 7  23586494.889          45.000        2435.318
  -9407978.593 8  21556240.773          49.000        1121.169
 -16589624.273 7  20605276.429          45.000       -1025.544
   6762591.583 6  24151695.942          38.000        2110.609
 -11633328.364 7  21261555.700          45.000       -2973.214
  -6126322.429 6  21972602.322          40.000       -2536.237
 16  4  1 21 32  0.0010000  0 11G04G18G20G29S20G10G27G16G08G26G21
   -580021.620 7  22019004.702          43.000       -3860.513
  -8784441.124 6  22455938.977          41.000         422.973
    748037.171 7  23576060.618          44.000       -2967.876
  37083798.78514  25459343.748          25.000       -4145.081
  13128724.366 6  38584444.017          40.000        -921.783
    995884.819 7  23558771.466          45.000        2421.424
  -9474721.217 8  21543537.555          48.000        1103.750
 -16526971.782 7  20617197.702          45.000       -1062.755
   6636146.785 6  24127633.400          38.000        2104.566
 -11453962.366 7  21295688.762          44.000       -3004.935
  -5973540.895 6  22001674.559          40.000       -2556.071
 16  4  1 21 33  0.0010000  0 11G04G18G20G07S20G10G27G16G08G26G21
   -347652.138 7  22063224.130          44.000       -3885.257
  -8808894.499 7  22451291.495          44.000         391.770
    927108.597 7  23610135.362          44.000       -3001.306
  -1435364.87215  24816265.828          35.000        1065.510
  13184026.639 6  38594967.598          40.000        -922.152
    851022.921 7  23531203.350          44.000        2407.136
  -9540402.540 8  21531040.110          49.000        1085.835
 -16462073.841 7  20629550.118          46.000       -1100.114
   6510036.618 6  24103637.187          39.000        2098.796
 -11272680.660 7  21330185.085          44.000       -3037.355
  -5819548.067 6  22030973.772          37.000       -2575.982
 16  4  1 21 34  0.0010000  0 11G04G18G20G07S20G10G27G16G08G26G21
   -113797.468 7  22107726.111          45.000       -3909.074
  -8831519.757 7  22446989.214          45.000         362.496
   1108162.180 7  23644588.827          43.000       -3033.186
  -1498400.57316  24804267.198          39.000        1034.622
  13239359.627 6  38605496.047          40.000        -922.483
    707008.617 7  23503799.476          44.000        2393.552
  -9605012.790 8  21518745.926          49.000        1068.754
 -16394924.390 7  20642326.644          46.000       -1137.557
   6384270.388 6  24079707.703          39.000        2094.710
 -11089491.743 7  21365045.612          45.000       -3068.349
  -5664352.437 6  22060509.958          38.000       -2595.348
 16  4  1 21 35  0.0010000  0 11G04G18G20G07S20G10G27G16G08G26G21
    121507.488 7  22152500.456          43.000       -3934.985
  -8852323.663 7  22443030.702          46.000         330.791
   1291162.038 7  23679415.221          44.000       -3066.685
  -1559536.793 6  24792630.782          37.000        1002.324
  13294699.863 6  38616025.473          40.000        -922.464
    563845.758 6  23476555.690          39.000        2378.079
  -9668564.235 8  21506651.651          49.000        1049.935
 -16325540.712 7  20655531.677          47.000       -1175.322
   6258834.659 6  24055836.521          38.000        2087.114
 -10904426.591 7  21400258.843          43.000       -3100.486
  -5507986.663 6  22090266.104          38.000       -2616.350
 16  4  1 21 36  0.0010000  0 11G04G18G20G07S20G10G27G16G08G26G21
    358263.827 7  22197553.550          43.000       -3958.317
  -8871279.357 7  22439421.770          45.000         300.962
   1476107.696 7  23714606.727          43.000       -3098.357
  -1618742.560 6  24781360.891          36.000         972.398
  13350068.979 6  38626563.101          40.000        -922.435
    421574.370 6  23449481.747          41.000        2363.791
  -9731033.168 8  21494765.331          49.000        1032.405
 -16253903.246 7  20669162.252          46.000       -1212.411
   6133752.057 6  24032034.302          38.000        2082.179
 -10717480.296 7  21435833.694          43.000       -3130.681
  -5350445.21115  22120232.647          32.000       -2635.564
 16  4  1 21 37  0.0010000  0 11G04G18G20G07S20G10G27G16G08G26G21
    596467.750 7  22242882.114          44.000       -3981.734
  -8888363.785 7  22436166.676          43.000         268.931
   1662994.563 7  23750170.253          43.000       -3131.563
  -1675990.161 6  24770468.570          38.000         938.100
  13405488.039 6  38637110.868          40.000        -923.650
    280230.312 7  23422586.948          42.000        2347.982
  -9792400.026 8  21483085.586          49.000        1013.442
 -16179996.676 7  20683226.551          46.000       -1250.634
   6009041.397 6  24008306.508          39.000        2075.600
 -10528652.494 7  21471767.148          43.000       -3163.178
  -5191729.30616  22150442.988          36.000       -2654.342
 16  4  1 21 38  0.0010000  0 11G04G18G20G07S20G10G27G16G08G26G21
    836085.778 7  22288483.215          46.000       -4005.116
  -8903583.979 7  22433272.261          45.000         237.723
   1851787.405 7  23786099.065          44.000       -3162.173
  -1731283.716 6  24759942.598          39.000         904.349
  13460930.874 6  38647659.839          40.000        -923.489
    139818.738 6  23395866.145          39.000        2332.260
  -9852675.484 8  21471615.296          48.000         995.521
 -16103838.257 7  20697720.406          47.000       -1288.002
   5884690.606 5  23984637.050          34.000        2070.673
 -10337973.231 7  21508051.944          43.000       -3193.014
  -5031867.679 6  22180866.239          38.000       -2673.385
 16  4  1 21 39  0.0010000  0 11G04G18G20G07S20G10G27G16G08G26G21
   1077117.010 7  22334349.751          45.000       -4028.957
  -8916914.553 7  22430733.725          43.000         206.380
   2042483.824 7  23822385.274          42.000       -3193.969
  -1784592.330 6  24749799.991          41.000         872.662
  13516404.705 6  38658216.523          40.000        -923.949
       378.605 7  23369334.275          46.000        2316.017
  -9911836.785 8  21460359.277          49.000         976.858
 -16025410.270 7  20712643.151          46.000       -1326.015
   5760722.326 5  23961042.087          34.000        2060.830
 -10145439.388 7  21544691.660          44.000       -3223.821
  -4870857.924 6  22211508.454          38.000       -2691.409
 16  4  1 21 40  0.0000000  0 11G04G18G20G07S20G10G27G16G08G26G21
   1319554.753 7  22080689.791          42.000       -4051.948
  -8928335.751 7  22128771.353          45.000         174.278
   2235076.076 7  23559243.250          43.000       -3225.933
  -1835893.202 6  24440245.099          40.000         838.764
  13571924.511 6  38368987.086          40.000        -925.699
   -138057.100 7  23043195.552          44.000        2298.756
  -9969867.299 8  21149522.458          49.000         957.885
 -15944701.556 7  20428209.575          46.000       -1363.917
   5637151.727 6  23637737.767          38.000        2056.668
  -9951054.128 6  21281886.285          41.000       -3254.456
  -4708702.125 6  21942566.711          36.000       -2712.150
 16  4  1 21 41  0.0000000  0 11G04G18G20G07S20G10G27G16G08G26G21
   1563368.875 7  22127084.859          42.000       -4075.200
  -8937851.636 7  22126963.249          45.000         142.753
   2429532.179 7  23596245.477          42.000       -3256.232
  -1885185.444 6  24430862.762          38.000         803.830
  13627470.404 6  38379557.555          40.000        -926.351
   -275479.156 6  23017043.172          39.000        2281.917
 -10026773.279 8  21138694.144          49.000         939.096
 -15861725.926 7  20443998.393          46.000       -1401.883
   5513972.350 6  23614298.739          41.000        2049.610
  -9754843.994 6  21319222.597          41.000       -3285.845
  -4545427.132 5  21973636.230          35.000       -2729.192
 16  4  1 21 42  0.0000000  0 11G04G18G20G07S20G10G27G16G08G26G21
   1808523.967 7  22173739.308          45.000       -4097.028
  -8945472.493 7  22125512.124          45.000         111.008
   2625814.615 7  23633598.087          42.000       -3286.447
  -1932475.649 6  24421864.331          41.000         772.188
  13683030.320 6  38390131.253          40.000        -925.344
   -411883.658 7  22991089.899          45.000        2264.510
 -10082566.854 8  21128075.931          48.000         920.610
 -15776501.265 7  20460215.770          46.000       -1439.197
   5391170.943 7  23590931.589          43.000        2043.798
  -9556841.508 7  21356902.677          42.000       -3314.915
  -4381063.241 5  22004908.748          33.000       -2748.600
 16  4  1 21 43  0.0000000  0 11G04G18G20G07S20G10G27G16G08G26G21
   2055025.146 7  22220644.935          44.000       -4119.855
  -8951166.446 7  22124427.278          45.000          78.477
   2823927.529 6  23671296.787          41.000       -3317.081
  -1977727.600 6  24413255.214          41.000         736.792
  13738635.009 6  38400713.240          40.000        -928.279
   -547224.677 6  22965331.895          41.000        2246.475
 -10137218.273 8  21117675.671          48.000         901.119
 -15689004.402 7  20476868.373          47.000       -1477.553
   5268776.899 7  23567641.708          44.000        2036.909
  -9357037.368 7  21394926.492          43.000       -3345.266
  -4215601.809 6  22036409.008          38.000       -2766.191
 16  4  1 21 44  0.0000000  0 11G04G18G20G07S20G10G27G16G08G26G21
   2302850.256 7  22267806.172          45.000       -4141.282
  -8954930.229 7  22123708.713          44.000          47.092
   3023846.920 7  23709339.186          42.000       -3347.048
  -2020934.850 6  24405029.425          39.000         702.452
  13794269.264 6  38411300.182          40.000        -927.748
   -681485.311 6  22939780.326          37.000        2229.742
 -10190725.991 8  21107494.219          49.000         882.628
 -15599242.026 7  20493948.210          46.000       -1514.362
   5146790.774 7  23544427.579          44.000        2029.938
  -9155451.083 7  21433285.858          43.000       -3373.986
  -4049059.618 6  22068101.710          39.000       -2783.796
 16  4  1 21 45  0.0000000  0 11G04G18G20G07S20G10G27G16G08G26G21
   2551957.772 7  22315210.980          45.000       -4162.575
  -8956779.767 7  22123357.301          44.000          14.275
   3225528.620 7  23747720.434          42.000       -3376.053
  -2062107.823 6  24397189.671          36.000         668.979
  13849900.274 6  38421884.629          40.000        -927.337
   -814666.908 7  22914442.279          45.000        2210.188
 -10243107.364 8  21097526.026          49.000         862.907
 -15507238.967 7  20511455.246          46.000       -1552.331
   5025194.950 7  23521290.143          45.000        2022.753
  -8952120.892 7  21471980.703          44.000       -3403.489
  -3881473.361 6  22099989.226          41.000       -2802.353
 16  4  1 21 46  0.0000000  0 11G04G18G20G07S20G10G27G16G08G26G21
   2802371.736 7  22362860.405          43.000       -4184.540
  -8956666.058 7  22123378.032          43.000         -18.471
   3428995.441 7  23786439.902          43.000       -3405.893
  -2101194.649 6  24389757.379          41.000         634.591
  13905576.811 6  38432478.918          40.000        -928.527
   -946705.476 6  22889315.919          41.000        2191.288
 -10294313.949 8  21087783.064          49.000         843.534
 -15412953.984 7  20529396.914          46.000       -1590.593
   4904037.264 7  23498230.989          44.000        2015.883
  -8747019.735 7  21511005.934          42.000       -3433.203
  -3712815.216 7  22132087.627          42.000       -2820.194
 16  4  1 21 47  0.0000000  0 11G04G18G20G07S20G10G27G16G08G26G21
   3054057.816 7  22410758.007          46.000       -4205.187
  -8954598.684 7  22123771.203          43.000         -50.551
   3634210.900 6  23825489.075          40.000       -3435.125
  -2138200.076 6  24382717.175          41.000         599.414
  13961272.530 6  38443077.081          40.000        -928.440
  -1077595.688 7  22864405.734          42.000        2171.543
 -10344355.882 8  21078260.707          49.000         824.506
 -15316405.924 7  20547770.266          45.000       -1627.657
   4783307.318 7  23475257.289          45.000        2008.876
  -8540179.370 7  21550368.059          44.000       -3461.455
  -3543113.565 6  22164377.563          41.000       -2836.956
 16  4  1 21 48  0.0000000  0 11G04G18G20G07S20G10G27G16G08G26G21
   3306982.849 7  22458886.161          44.000       -4226.117
  -8950585.393 7  22124535.400          44.000         -83.155
   3841139.611 6  23864862.699          38.000       -3462.587
  -2173128.181 6  24376071.766          39.000         565.098
  14016979.478 6  38453677.041          40.000        -928.690
  -1207330.341 7  22839720.551          46.000        2152.333
 -10393241.689 8  21068956.041          48.000         805.372
 -15217612.332 7  20566569.298          45.000       -1665.372
   4662995.922 7  23452365.256          47.000        2001.279
  -8331629.988 7  21590055.037          45.000       -3490.030
  -3372397.336 6  22196861.544          40.000       -2853.313
 16  4  1 21 49  0.0000000  0 11G04G18G20G07S20G10G27G16G08G26G21
   3561145.688 7  22507251.656          44.000       -4246.368
  -8944602.829 7  22125675.807          44.000        -116.817
   4049778.083 6  23904567.179          39.000       -3491.863
  -2205950.888 6  24369823.052          37.000         530.188
  14072722.917 6  38464286.302          40.000        -929.601
  -1335870.507 7  22815260.703          43.000        2132.664
 -10440947.579 8  21059878.089          48.000         784.925
 -15116558.427 7  20585799.787          46.000       -1703.164
   4543126.788 7  23429553.075          46.000        1994.011
  -8121369.760 7  21630065.576          44.000       -3518.761
  -3200661.968 6  22229538.281          39.000       -2870.364
 16  4  1 21 50  0.0000000  0 11G04G18G20G07S20G10G27G16G08G26G21
   3816546.517 7  22555855.119          45.000       -4266.903
  -8936626.454 7  22127194.796          45.000        -149.643
   4260125.020 6  23944595.152          39.000       -3519.801
  -2236640.382 6  24363982.691          36.000         493.883
  14128512.396 6  38474901.270          40.000        -930.137
  -1463176.222 7  22791035.141          45.000        2111.368
 -10487449.064 8  21051029.049          48.000         764.844
 -15013228.548 7  20605462.431          46.000       -1741.182
   4423723.782 7  23406830.239          47.000        1986.135
  -7909396.426 7  21670402.278          44.000       -3546.806
  -3027902.864 7  22262419.185          42.000       -2888.163
 16  4  1 21 51  0.0000000  0 11G04G18G20G07S20G10G27G16G08G26G21
   4073150.967 7  22604683.638          42.000       -4286.897
  -8926666.814 7  22129087.865          44.000        -182.362
   4472143.528 6  23984943.668          41.000       -3547.494
  -2265202.456 6  24358546.216          36.000         457.821
  14184335.269 6  38485525.887          40.000        -930.764
  -1589241.533 7  22767045.873          44.000        2090.916
 -10532755.429 8  21042408.344          49.000         744.803
 -14907641.358 7  20625555.519          46.000       -1778.291
   4304777.666 7  23384196.992          47.000        1978.981
  -7695741.591 7  21711062.385          46.000       -3574.737
  -2854148.401 7  22295483.265          42.000       -2903.791
 16  4  1 21 52  0.0000000  0 11G04G18G20G07S20G10G27G16G08G26G21
   4330941.687 7  22653736.776          43.000       -4306.325
  -8914716.217 7  22131362.292          44.000        -216.077
   4685813.968 6  24025600.110          38.000       -3574.681
  -2291625.500 5  24353516.243          33.000         422.988
  14240186.582 6  38496153.698          40.000        -930.974
  -1714043.615 7  22743294.312          43.000        2069.049
 -10576858.909 8  21034016.203          50.000         724.652
 -14799799.723 7  20646079.086          46.000       -1816.424
   4186295.630 7  23361649.077          47.000        1970.625
  -7480420.054 7  21752036.072          46.000       -3602.830
  -2679410.569 7  22328737.534          43.000       -2920.349
 16  4  1 21 53  0.0000000  0 11G04G18G20G07S20G10G27G16G08G26G21
   4589933.399 6  22703021.880          41.000       -4325.710
  -8900736.367 7  22134020.850          43.000        -249.343
   4901149.116 6  24066576.903          37.000       -3602.264
  -2315867.26215  24348908.077          34.000         386.008
  14296089.999 6  38506791.176          40.000        -931.961
  -1837527.383 7  22719795.762          44.000        2047.069
 -10619719.647 8  21025859.029          49.000         704.416
 -14689674.411 7  20667034.041          47.000       -1854.318
   4068317.741 8  23339199.896          48.000        1962.429
  -7263414.797 7  21793329.098          46.000       -3630.498
  -2503668.689 7  22362175.048          42.000       -2937.698
 16  4  1 21 54  0.0000000  0 11G04G18G20G07S20G10G27G16G08G26G21
   4850066.584 6  22752523.540          41.000       -4344.763
  -8884763.263 7  22137062.946          44.000        -282.498
   5118086.402 6  24107861.780          39.000       -3628.683
  -2337959.67216  24344703.586          36.000         350.311
  14352008.738 6  38517431.708          40.000        -932.600
  -1959712.720 7  22696546.156          44.000        2026.767
 -10661372.203 8  21017933.995          49.000         684.316
 -14577309.924 7  20688416.438          46.000       -1890.795
   3950809.346 8  23316837.354          48.000        1955.376
  -7044783.365 7  21834935.216          46.000       -3657.021
  -2326976.801 7  22395803.502          45.000       -2952.747
 16  4  1 21 55  0.0010000  0 11G04G18G20G07S20G10G27G16G08G26G21
   5111327.353 6  22802242.055          41.000       -4363.037
  -8866791.501 7  22140483.032          44.000        -316.173
   5336609.265 6  24149449.505          38.000       -3654.469
  -2357894.769 6  24340912.683          37.000         314.446
  14407953.022 6  38528079.046          40.000        -931.812
  -2080579.598 7  22673547.903          45.000        2003.288
 -10701810.143 8  21010237.961          48.000         663.691
 -14462708.439 7  20710222.981          46.000       -1928.398
   3833775.628 8  23294566.671          49.000        1946.510
  -6824538.115 7  21876846.277          46.000       -3683.850
  -2149344.553 7  22429605.603          45.000       -2967.964
 16  4  1 21 56  0.0010000  0 11G04G18G20G07S20G10G27G16G08G26G21
   5373707.952 7  22852171.927          42.000       -4382.810
  -8846797.821 7  22144286.726          44.000        -349.879
   5556708.747 6  24191332.261          39.000       -3682.105
  -2375642.771 6  24337538.056          37.000         277.352
  14463933.183 6  38538731.078          40.000        -933.419
  -2200082.969 7  22650807.059          45.000        1979.495
 -10741005.833 8  21002777.853          48.000         642.624
 -14345859.016 7  20732459.287          45.000       -1966.296
   3717246.909 8  23272390.149          49.000        1937.571
  -6602683.476 7  21919063.676          46.000       -3711.314
  -1970771.687 7  22463585.365          44.000       -2984.415
 16  4  1 21 57  0.0010000  0 11G04G18G20G07S20G10G27G16G08G26G21
   5637190.455 7  22902313.679          44.000       -4400.220
  -8824780.490 7  22148476.540          43.000        -383.084
   5778364.111 6  24233509.560          38.000       -3707.396
  -2391199.57515  24334570.768          30.000         241.446
  14519950.559 6  38549392.707          40.000        -934.103
  -2318206.906 7  22628329.974          45.000        1957.365
 -10778956.701 8  20995558.663          49.000         622.319
 -14226767.579 7  20755121.100          46.000       -2003.008
   3601224.909 8  23250313.041          49.000        1929.735
  -6379236.049 7  21961582.021          44.000       -3736.700
  -1791270.381 7  22497742.020          45.000       -2999.356
 16  4  1 21 58  0.0010000  0 11G04G18G20G07S20G10G27G16G08G26G21
   5901730.563 7  22952652.026          44.000       -4418.456
  -8800761.150 7  22153048.236          44.000        -417.847
   6001528.579 5  24275973.496          35.000       -3731.908
  -2404583.85415  24332028.655          33.000         203.798
  14575970.970 6  38560051.021          40.000        -934.409
  -2434955.840 7  22606110.612          44.000        1933.039
 -10815681.688 8  20988570.252          49.000         601.263
 -14105465.385 7  20778205.155          47.000       -2040.207
   3485690.666 8  23228326.988          49.000        1921.273
  -6154238.413 7  22004397.073          44.000       -3763.414
  -1610878.702 7  22532069.949          44.000       -3014.158
 16  4  1 21 59  0.0010000  0 11G04G18G20G07S20G10G27G16G08G26G21
   6167356.543 6  23003196.634          41.000       -4435.863
  -8774688.357 7  22158008.687          44.000        -451.100
   6226228.545 6  24318731.799          36.000       -3757.962
  -2415738.64815  24329904.022          35.000         167.031
  14632032.681 6  38570719.107          40.000        -934.524
  -2550260.851 7  22584166.946          45.000        1910.472
 -10851126.075 8  20981824.574          49.000         580.289
 -13981909.931 7  20801717.631          47.000       -2076.806
   3370699.116 8  23206444.764          48.000        1911.936
  -5927659.735 7  22047514.728          44.000       -3789.384
  -1429561.730 7  22566573.462          44.000       -3029.640
 16  4  1 22  0  0.0010000  0 11G04G18G20G07S20G10G27G16G08G26G21
   6434026.215 7  23053943.856          42.000       -4453.767
  -8746583.669 7  22163355.957          44.000        -485.346
   6452418.020 5  24361772.604          35.000       -3780.588
  -2424682.066 5  24328206.098          33.000         130.957
  14688118.103 6  38581391.276          40.000        -935.290
  -2664125.106 7  22562499.778          43.000        1885.695
 -10885307.396 8  20975319.848          49.000         559.018
 -13856131.962 7  20825651.965          47.000       -2114.794
   3256232.594 7  23184660.471          47.000        1903.370
  -5699541.724 7  22090924.553          45.000       -3814.169
  -1247356.854 7  22601246.538          45.000       -3044.116
