     2.11           OBSERVATION DATA    M (MIXED)           RINEX VERSION / TYPE
teqc  2015Nov6      anonyme             20160411 14:55:16UTCPGM / RUN BY / DATE
Linux 2.4.21-27.ELsmp|Opteron|gcc|Linux x86_64|=+           COMMENT
-Unknown-                                                   MARKER NAME
-Unknown-           -Unknown-                               OBSERVER / AGENCY
-Unknown-           U-BLOX              -Unknown-           REC # / TYPE / VERS
-Unknown-           UBLOX           NONE                    ANT # / TYPE
        0.0000        0.0000        0.0000                  APPROX POSITION XYZ
        0.0000        0.0000        0.0000                  ANTENNA: DELTA H/E/N
     1     0                                                WAVELENGTH FACT L1/2
     4    L1    C1    S1    D1                              # / TYPES OF OBSERV
 SNR is mapped to RINEX snr flag value [0-9]                COMMENT
  L1 & L2: min(max(int(snr_dBHz/6), 0), 9)                  COMMENT
  2016     4     1    18     0   30.0010000     GPS         TIME OF FIRST OBS
    17                                                      LEAP SECONDS
                                                            END OF HEADER
 16  4  1 18  0 30.0010000  0 11G04G12G14G25G29G31S20G32G02G26G21
  -8586349.923 7  22594000.054          45.000        2007.209
  13093873.551 6  23843437.930          41.000       -3874.860
  12585860.866 6  24399639.714          40.000       -3953.800
   7036489.053 6  21285293.944          36.000       -2616.715
  -1406807.689 7  20233261.744          44.000        -684.345
  -4081090.123 7  21175940.235          46.000         152.851
   2594588.629 6  38678410.855          37.000        -729.039
  13020667.535 7  24739180.536          43.000       -4005.352
   6003581.336 6  23709522.185          41.000       -2626.719
  -8809416.425 6  23897481.988          38.000        2290.256
  -2673332.372 6  24728254.048          39.000        2515.172
 16  4  1 18  1  0.0010000  0 11G04G12G14G25G29G31S20G32G02G26G21
  -8646469.993 7  22582560.075          47.000        2000.589
  13210183.293 6  23865568.872          40.000       -3879.437
  12704531.883 7  24422221.570          42.000       -3958.795
   7115138.746 5  21300254.958          35.000       -2625.827
  -1386025.801 7  20237216.556          46.000        -701.517
  -4085409.099 8  21175119.813          48.000         134.814
   2616467.188 6  38682574.355          39.000        -730.423
  13140861.220 7  24762051.088          44.000       -4008.669
   6082601.112 7  23724557.659          42.000       -2642.101
  -8878070.653 6  23884416.713          40.000        2286.252
  -2748760.985 6  24713901.087          40.000        2512.794
 16  4  1 18  1 30.0010000  0 11G04G12G14G25G29G31S20G32G02G26G21
  -8706358.769 7  22571165.083          47.000        1992.619
  13326646.506 6  23887725.309          36.000       -3883.507
  12823367.413 7  24444836.528          42.000       -3963.715
   7194140.174 6  21315289.211          36.000       -2639.134
  -1364704.034 7  20241273.872          46.000        -719.555
  -4089163.763 8  21174405.977          49.000         115.845
   2638386.822 6  38686744.974          39.000        -730.767
  13261183.906 7  24784950.189          44.000       -4013.055
   6162083.120 7  23739684.991          43.000       -2656.762
  -8946592.195 6  23871378.992          40.000        2281.266
  -2824081.643 6  24699569.554          38.000        2508.945
 16  4  1 18  2  0.0010000  0 11G04G12G14G25G29G31S20G32G02G26G21
  -8766037.714 7  22559808.289          46.000        1986.019
  13443240.18515  23909908.235          35.000       -3887.181
  12942342.295 7  24467477.645          42.000       -3967.965
   7273470.407 6  21330384.295          36.000       -2649.342
  -1342865.673 7  20245430.252          47.000        -736.334
  -4092375.161 8  21173794.173          49.000          98.456
   2660325.307 6  38690920.235          39.000        -730.925
  13381610.197 7  24807866.565          44.000       -4015.632
   6242003.302 7  23754893.449          43.000       -2670.671
  -9015002.370 6  23858358.006          40.000        2279.000
  -2899314.702 5  24685253.413          35.000        2506.977
 16  4  1 18  2 30.0010000  0 11G04G12G14G25G29G31S20G32G02G26G21
  -8825512.717 7  22548490.863          46.000        1979.512
  13559955.845 6  23932125.120          37.000       -3892.058
  13061445.507 7  24490139.771          42.000       -3972.182
   7353121.386 6  21345542.653          37.000       -2660.611
  -1320518.671 7  20249682.573          46.000        -753.506
  -4095049.574 8  21173285.429          49.000          79.854
   2682276.860 6  38695097.329          39.000        -732.192
  13502129.600 7  24830797.827          42.000       -4019.516
   6322352.510 7  23770183.033          43.000       -2685.944
  -9083307.568 6  23845359.164          40.000        2274.812
  -2974464.44515  24670947.707          31.000        2503.006
 16  4  1 18  3  0.0010000  0 11G04G12G14G25G29G31S20G32G02G26G21
  -8884781.046 7  22537213.503          46.000        1971.958
  13676794.876 6  23954364.881          40.000       -3896.352
  13180676.298 7  24512828.579          43.000       -3976.146
   7433094.495 6  21360762.419          37.000       -2670.986
  -1297661.742 7  20254031.063          46.000        -770.304
  -4097183.649 8  21172880.846          49.000          62.272
   2704244.331 6  38699279.081          39.000        -732.923
  13622740.954 7  24853748.266          42.000       -4021.724
   6403130.760 7  23785555.610          44.000       -2700.156
  -9151504.877 6  23832381.280          40.000        2271.691
  -3049527.60914  24656633.922          27.000        2501.762
 16  4  1 18  3 30.0010000  0 11G04G12G14G25G29G31S20G32G02G26G21
  -8943848.531 7  22525970.450          44.000        1966.415
  13793749.560 6  23976622.163          41.000       -3900.046
  13300024.539 7  24535539.532          42.000       -3979.868
   7513381.993 6  21376045.320          39.000       -2681.635
  -1274302.965 7  20258477.797          46.000        -786.727
  -4098783.428 8  21172575.886          49.000          44.594
   2726216.103 6  38703460.206          39.000        -732.552
  13743434.091 7  24876717.045          44.000       -4023.908
   6484329.261 7  23801007.970          45.000       -2713.708
  -9219600.477 6  23819423.621          41.000        2268.582
  -3124508.63315  24642374.075          31.000        2499.815
 16  4  1 18  4  0.0010000  0 11G04G12G14G25G29G31S20G32G02G26G21
  -9002707.531 7  22514770.098          43.000        1958.951
  13910825.505 7  23998902.548          42.000       -3904.113
  13419493.495 6  24558272.559          41.000       -3984.275
   7593989.617 6  21391379.524          38.000       -2692.628
  -1250436.662 7  20263017.785          45.000        -803.718
  -4099841.038 8  21172374.196          49.000          26.402
   2748199.162 6  38707642.971          39.000        -732.236
  13864212.469 7  24899701.425          44.000       -4026.857
   6565952.691 7  23816540.182          45.000       -2727.837
  -9287586.809 7  23806487.688          42.000        2265.380
  -3199399.31215  24628131.556          34.000        2495.791
 16  4  1 18  4 30.0010000  0 11G04G12G14G25G29G31S20G32G02G26G21
  -9061362.850 7  22503611.346          44.000        1951.942
  14028015.895 6  24021203.403          40.000       -3908.134
  13539074.195 7  24581029.021          42.000       -3988.812
   7674910.732 6  21406769.971          36.000       -2702.389
  -1226069.504 7  20267654.203          45.000        -820.207
  -4100361.535 8  21172274.189          49.000           8.535
   2770185.418 6  38711826.486          40.000        -732.659
  13985066.978 7  24922699.398          44.000       -4029.896
   6647993.234 7  23832151.740          45.000       -2741.482
  -9355468.833 7  23793569.466          43.000        2261.220
  -3274202.058 6  24613902.910          37.000        2491.778
 16  4  1 18  5  0.0010000  0 11G04G12G14G25G29G31S20G32G02G26G21
  -9119818.513 7  22492487.286          44.000        1945.488
  14145314.698 6  24043528.741          36.000       -3911.659
  13658758.026 7  24603806.319          43.000       -3991.257
   7756139.345 6  21422238.664          40.000       -2713.116
  -1201207.817 7  20272385.254          45.000        -837.026
  -4100349.237 8  21172276.824          49.000          -9.528
   2792170.912 6  38716010.385          40.000        -732.638
  14105989.078 7  24945710.215          44.000       -4031.974
   6730443.838 7  23847841.283          45.000       -2755.630
  -9423251.035 7  23780668.293          43.000        2257.602
  -3348920.860 6  24599686.462          38.000        2488.356
 16  4  1 18  5 30.0010000  0 11G04G12G14G25G29G31S20G32G02G26G21
  -9178065.074 7  22481401.477          44.000        1937.582
  14262729.53513  24065828.287          22.000       -3914.002
  13778550.471 7  24626600.369          42.000       -3995.296
   7837683.353 6  21437756.026          40.000       -2723.923
  -1175843.988 7  20277212.508          46.000        -853.772
  -4099794.461 8  21172384.038          50.000         -27.424
   2814165.947 6  38720196.396          40.000        -733.402
  14226984.199 7  24968736.057          44.000       -4033.838
   6813310.878 7  23863609.806          45.000       -2768.910
  -9490923.938 7  23767791.463          44.000        2253.941
  -3423544.644 6  24585487.656          39.000        2486.114
 16  4  1 18  6  0.0010000  0 11G04G12G14G25G29G31S20G32G02G26G21
  -9236097.403 7  22470358.770          45.000        1931.148
  14380226.02315  24088225.466          32.000       -3922.105
  13898451.988 7  24649418.693          42.000       -3998.519
   7919545.840 6  21453328.059          37.000       -2733.542
  -1149974.831 7  20282137.081          47.000        -870.871
  -4098692.209 8  21172592.411          49.000         -46.025
   2836173.175 6  38724384.675          40.000        -733.022
  14348053.114 7  24991774.288          43.000       -4037.144
   6896596.544 7  23879459.472          45.000       -2783.424
  -9558482.733 7  23754938.854          45.000        2250.006
  -3498067.140 6  24571307.941          41.000        2482.406
 16  4  1 18  6 30.0010000  0 11G04G12G14G25G29G31S20G32G02G26G21
  -9293923.119 7  22459354.314          45.000        1923.958
  14497869.637 5  24110616.085          35.000       -3922.199
  14018451.197 7  24672255.409          42.000       -4002.033
   8001717.315 6  21468961.779          37.000       -2745.164
  -1123610.354 7  20287154.159          47.000        -887.266
  -4097050.206 8  21172906.131          49.000         -63.731
   2858181.841 6  38728571.872          39.000        -733.978
  14469183.963 7  25014821.471          42.000       -4038.519
   6980289.985 7  23895386.042          45.000       -2796.610
  -9625935.170 7  23742104.272          45.000        2246.570
  -3572494.948 6  24557144.105          41.000        2478.981
 16  4  1 18  7  0.0010000  0 11G04G12G14G25G29G31S20G32G02G26G21
  -9351535.987 7  22448392.802          47.000        1917.079
  14615627.095 6  24133026.283          38.000       -3927.778
  14138550.113 6  24695107.569          41.000       -4005.524
   8084202.377 6  21484661.094          38.000       -2755.279
  -1096746.168 7  20292266.741          47.000        -903.319
  -4094862.344 8  21173321.097          48.000         -82.011
   2880198.918 6  38732761.617          39.000        -732.787
  14590378.867 7  25037887.553          43.000       -4040.540
   7064394.656 7  23911390.649          45.000       -2809.965
  -9693275.039 7  23729288.570          45.000        2243.252
  -3646820.531 7  24543001.419          42.000        2476.098
 16  4  1 18  7 30.0010000  0 11G04G12G14G25G29G31S20G32G02G26G21
  -9408942.441 8  22437469.263          48.000        1909.918
  14733489.573 6  24155455.048          38.000       -3931.921
  14258737.381 6  24717976.096          40.000       -4007.747
   8166992.292 6  21500417.332          38.000       -2764.758
  -1069390.657 7  20297470.623          46.000        -920.024
  -4092135.383 8  21173839.508          48.000         -99.804
   2902217.435 6  38736950.891          39.000        -733.921
  14711626.736 7  25060960.527          42.000       -4041.893
   7148900.594 7  23927470.640          45.000       -2823.433
  -9760509.309 7  23716492.011          45.000        2239.476
  -3721049.670 7  24528876.061          42.000        2472.839
 16  4  1 18  8  0.0010000  0 11G04G12G14G25G29G31S20G32G02G26G21
  -9466136.793 8  22426584.567          48.000        1902.890
  14851461.384 6  24177902.327          36.000       -3935.141
  14379014.850 6  24740865.128          41.000       -4010.598
   8250091.280 6  21516231.470          38.000       -2774.272
  -1041540.387 7  20302769.137          45.000        -936.650
  -4088863.756 8  21174461.434          48.000        -118.424
   2924242.080 6  38741142.957          39.000        -733.912
  14832929.277 7  25084041.878          42.000       -4044.976
   7233810.733 7  23943630.345          45.000       -2836.998
  -9827632.232 7  23703719.342          46.000        2235.754
  -3795175.432 6  24514770.614          41.000        2468.742
 16  4  1 18  8 30.0010000  0 11G04G12G14G25G29G31S20G32G02G26G21
  -9523114.985 8  22415741.630          48.000        1895.799
  14969544.51315  24200366.970          30.000       -3936.130
  14499382.152 7  24763771.052          42.000       -4013.514
   8333501.294 6  21532098.237          36.000       -2784.710
  -1013193.724 7  20308163.941          46.000        -952.995
  -4085043.437 8  21175189.824          48.000        -136.602
   2946278.804 6  38745336.418          40.000        -735.030
  14954286.313 7  25107135.130          42.000       -4045.623
   7319125.831 7  23959863.689          45.000       -2850.349
  -9894639.946 7  23690967.735          46.000        2232.121
  -3869192.545 6  24500684.013          39.000        2465.195
 16  4  1 18  9  0.0000000  0 11G04G12G14G25G29G31S20G32G02G26G21
  -9579865.692 8  22105150.265          49.000        1887.672
  15087748.17214  23923058.056          26.000       -3941.086
  14619846.491 7  24486901.761          42.000       -4017.390
   8417231.930 5  21248234.952          34.000       -2796.775
   -984341.151 7  20013862.215          45.000        -970.340
  -4080663.439 8  20876231.001          48.000        -155.476
   2968335.588 6  38449741.020          39.000        -735.392
  15075704.853 7  24830450.707          43.000       -4048.490
   7404854.567 7  23676384.117          45.000       -2864.949
  -9961521.295 7  23378446.376          45.000        2226.886
  -3943088.562 6  24186829.597          37.000        2460.262
 16  4  1 18  9 30.0000000  0 10G04G14G25G29G31S20G32G02G26G21
  -9636382.106 8  22094394.858          48.000        1880.353
  14740410.201 7  24509845.552          42.000       -4019.581
   8501287.995 6  21264236.802          37.000       -2807.230
   -954978.292 7  20019449.723          45.000        -987.248
  -4075717.255 8  20877172.056          49.000        -174.033
   2990416.728 6  38453942.352          39.000        -736.764
  15197187.402 7  24853569.227          43.000       -4049.972
   7491000.208 7  23692777.776          46.000       -2878.486
 -10028269.740 7  23365745.653          46.000        2222.845
  -4016855.470 6  24172794.631          36.000        2456.719
 16  4  1 18 10  0.0000000  0 10G04G14G25G29G31S20G32G02G26G21
  -9692677.107 7  22083681.664          47.000        1872.865
  14861056.581 7  24532805.170          43.000       -4022.766
   8585654.979 6  21280295.085          40.000       -2817.765
   -925119.648 7  20025131.095          45.000       -1003.908
  -4070217.778 8  20878218.685          49.000        -192.245
   3012508.528 6  38458147.401          39.000        -736.486
  15318717.128 7  24876693.819          43.000       -4051.487
   7577547.330 7  23709247.885          46.000       -2891.208
 -10094898.055 7  23353067.582          46.000        2218.972
  -4090505.237 6  24158780.501          36.000        2453.644
 16  4  1 18 10 30.0000000  0 11G04G12G14G25G29G31S20G32G02G26G21
  -9748745.853 7  22073012.600          47.000        1865.084
  15442721.23714  23990683.025          29.000       -3953.728
  14981786.113 7  24555779.341          42.000       -4025.959
   8670335.704 7  21296411.112          42.000       -2828.480
   -894762.819 7  20030907.047          45.000       -1020.446
  -4064160.330 8  20879371.935          49.000        -211.247
   3034617.573 6  38462355.311          39.000        -737.464
  15440294.497 7  24899829.841          43.000       -4052.859
   7664497.017 7  23725794.059          46.000       -2904.878
 -10161401.642 7  23340412.439          47.000        2215.149
  -4164031.915 5  24144787.608          34.000        2448.923
 16  4  1 18 11  0.0000000  0 12G04G12G14G25G29G31S20G32G02G05G26G21
  -9804577.369 7  22062387.983          46.000        1857.589
  15561396.82015  24013280.411          35.000       -3956.117
  15102605.260 7  24578769.811          42.000       -4028.344
   8755339.003 6  21312584.654          41.000       -2837.960
   -863899.493 7  20036783.076          46.000       -1037.006
  -4057534.739 8  20880633.185          49.000        -230.105
   3056750.876 6  38466567.532          39.000        -738.401
  15561926.026 7  24922976.089          43.000       -4054.370
   7751857.104 7  23742418.515          46.000       -2918.445
    -48356.05714  25485144.172          24.000        1612.640
 -10227769.947 7  23327782.967          47.000        2210.558
  -4237422.92114  24130806.406          27.000        2443.462
 16  4  1 18 11 30.0000000  0 12G04G12G14G25G29G31S20G32G02G05G26G21
  -9860178.566 7  22051808.946          45.000        1849.261
  15680186.169 6  24035884.934          37.000       -3962.231
  15223502.856 7  24601779.441          43.000       -4031.021
   8840656.209 6  21328821.017          41.000       -2849.483
   -832538.397 7  20042750.108          46.000       -1054.119
  -4050347.945 8  20881998.874          48.000        -249.303
   3078899.687 6  38470781.777          39.000        -739.408
  15683600.668 7  24946127.816          42.000       -4056.840
   7839617.309 7  23759118.094          45.000       -2932.295
    -96617.71014  25475964.956          26.000        1603.744
 -10294009.924 7  23315178.273          47.000        2205.635
  -4310685.05214  24116854.730          28.000        2439.574
 16  4  1 18 12  0.0000000  0 12G04G12G14G25G29G31S20G32G02G05G26G21
  -9915552.578 7  22041272.766          45.000        1841.880
  15799083.851 6  24058506.995          37.000       -3964.597
  15344471.441 7  24624799.524          43.000       -4033.307
   8926282.186 7  21345117.810          43.000       -2859.437
   -800684.991 7  20048810.674          45.000       -1070.518
  -4042603.423 8  20883472.649          48.000        -267.621
   3101058.237 6  38474998.483          39.000        -738.653
  15805310.993 7  24969289.700          42.000       -4057.805
   7927771.759 7  23775893.285          45.000       -2945.223
   -144622.45714  25466829.889          28.000        1595.265
 -10360124.921 8  23302597.155          48.000        2201.458
  -4383820.40815  24102956.836          35.000        2436.606
 16  4  1 18 12 30.0000000  0 12G04G12G14G25G29G31S20G32G02G05G26G21
  -9970695.243 7  22030775.291          43.000        1834.845
  15918092.299 6  24081151.794          38.000       -3968.139
  15465511.128 7  24647831.962          42.000       -4035.455
   9012219.362 6  21361466.623          40.000       -2868.765
   -768337.126 7  20054965.680          45.000       -1085.957
  -4034297.415 8  20885054.756          49.000        -285.709
   3123227.603 6  38479217.300          39.000        -738.770
  15927057.086 6  24992456.260          41.000       -4058.867
   8016321.506 7  23792743.495          45.000       -2958.195
   -192364.59914  25457740.088          25.000        1587.716
 -10426110.804 8  23290039.856          48.000        2197.949
  -4456822.894 6  24089069.621          39.000        2431.354
 16  4  1 18 13  0.0000000  0 11G04G12G14G25G29G31S20G32G02G26G21
 -10025614.420 7  22020326.624          45.000        1826.901
  16037201.425 6  24103817.655          37.000       -3973.075
  15586609.525 7  24670877.819          42.000       -4037.477
   9098457.730 6  21377877.820          40.000       -2880.177
   -735505.059 7  20061214.463          46.000       -1102.750
  -4025438.248 8  20886739.679          49.000        -304.798
   3145400.113 6  38483436.134          39.000        -740.017
  16048826.668 6  25015625.891          39.000       -4060.564
   8105255.146 7  23809666.960          45.000       -2971.338
 -10491975.730 8  23277505.190          48.000        2193.165
  -4529699.824 6  24075204.236          41.000        2426.463
 16  4  1 18 13 30.0000000  0 12G04G12G14G25G29G31S20G32G02G05G26G21
 -10080297.153 7  22009922.193          46.000        1818.592
  16156422.407 5  24126500.634          35.000       -3977.209
  15707775.559 6  24693934.914          41.000       -4039.764
   9185008.451 6  21394344.212          38.000       -2890.384
   -702178.265 7  20067555.453          45.000       -1119.027
  -4016012.985 8  20888535.428          50.000        -323.415
   3167589.023 6  38487658.494          39.000        -740.633
  16170628.598 6  25038803.881          38.000       -4060.047
   8194582.777 7  23826666.352          45.000       -2984.130
   -287090.80013  25439716.055          23.000        1565.380
 -10557706.793 8  23264997.903          49.000        2188.851
  -4602437.136 6  24061362.113          41.000        2422.194
 16  4  1 18 14  0.0000000  0 12G04G12G14G25G29G31S20G32G02G05G26G21
 -10134742.263 7  21999557.863          46.000        1810.857
  16275754.87415  24149199.232          30.000       -3982.257
  15829005.984 6  24717003.212          41.000       -4041.843
   9271870.838 6  21410877.071          40.000       -2900.003
   -668357.921 7  20073993.362          47.000       -1135.468
  -4006021.263 8  20890436.316          49.000        -342.610
   3189795.251 6  38491885.460          39.000        -740.681
  16292459.809 6  25061988.171          37.000       -4061.096
   8284301.877 7  23843739.104          45.000       -2997.055
   -334030.19414  25430786.133          29.000        1560.891
 -10623302.955 8  23252515.379          49.000        2184.563
  -4675032.437 7  24047546.636          42.000        2417.980
 16  4  1 18 14 30.0000000  0 12G04G12G14G25G29G31S20G32G02G05G26G21
 -10188955.485 7  21989242.115          46.000        1803.278
  16395189.46215  24171923.063          31.000       -3984.358
  15950290.641 6  24740082.381          41.000       -4043.951
   9359036.873 6  21427464.201          41.000       -2910.155
   -634052.132 7  20080522.187          47.000       -1151.751
  -3995469.548 8  20892442.166          48.000        -360.904
   3212013.649 6  38496113.264          39.000        -740.607
  16414310.084 6  25085174.851          37.000       -4063.942
   8374403.553 7  23860884.641          45.000       -3009.870
   -380702.45615  25421905.298          31.000        1551.745
 -10688770.308 8  23240056.708          49.000        2180.071
  -4747490.514 7  24033757.037          43.000        2412.385
 16  4  1 18 15  0.0000000  0 12G04G12G14G25G29G31S20G32G02G05G26G21
 -10242926.923 7  21978973.272          47.000        1795.354
  16514734.85415  24194681.863          34.000       -3986.737
  16071635.744 6  24763172.998          40.000       -4046.546
   9446514.841 7  21444112.808          43.000       -2920.785
   -599252.873 7  20087141.927          45.000       -1168.280
  -3984347.860 8  20894557.691          48.000        -379.909
   3234251.410 6  38500347.053          39.000        -740.648
  16536185.446 5  25108366.365          35.000       -4063.976
   8464894.743 7  23878105.248          45.000       -3022.303
   -427093.26915  25413078.210          30.000        1545.156
 -10754098.830 8  23227624.405          49.000        2175.256
  -4819800.298 7  24019994.347          42.000        2407.365
 16  4  1 18 15 30.0000000  0 12G04G12G14G25G29G31S20G32G02G05G26G21
 -10296658.959 7  21968747.253          47.000        1787.319
  16634387.314 6  24217459.563          36.000       -3989.161
  16193033.930 6  24786275.236          40.000       -4047.146
   9534300.132 7  21460815.302          42.000       -2931.093
   -563965.284 7  20093855.776          45.000       -1184.058
  -3972659.494 8  20896782.297          48.000        -399.015
   3256503.197 6  38504580.266          39.000        -741.471
  16658079.004 5  25131558.577          34.000       -4062.927
   8555769.505 7  23895397.873          45.000       -3035.370
   -473203.84615  25404304.049          30.000        1532.465
 -10819291.307 8  23215218.941          49.000        2170.964
  -4891963.394 6  24006260.241          39.000        2402.978
 16  4  1 18 16  0.0000000  0 12G04G12G14G25G29G31S20G32G02G05G26G21
 -10350157.022 7  21958567.651          47.000        1779.704
  16754139.055 6  24240251.170          37.000       -3992.961
  16314475.900 6  24809383.059          40.000       -4048.916
   9622385.534 7  21477576.759          42.000       -2940.660
   -528196.943 7  20100661.989          44.000       -1199.614
  -3960410.010 8  20899114.780          48.000        -417.696
   3278762.949 6  38508815.015          39.000        -742.204
  16779981.352 6  25154759.898          36.000       -4063.448
   8647019.147 7  23912763.719          46.000       -3047.956
   -519037.74214  25395580.371          29.000        1523.871
 -10884353.100 8  23202838.291          49.000        2166.704
  -4963983.995 5  23992547.441          33.000        2400.385
 16  4  1 18 16 30.0000000  0 12G04G12G14G25G29G31S20G32G02G05G26G21
 -10403419.160 7  21948430.994          46.000        1771.573
  16873989.902 6  24263058.640          38.000       -3996.612
  16435959.239 6  24832498.385          39.000       -4050.271
   9710770.967 7  21494398.211          43.000       -2951.314
   -491948.089 7  20107561.037          45.000       -1216.153
  -3947598.159 8  20901552.139          48.000        -436.562
   3301033.644 6  38513054.738          39.000        -742.763
  16901889.993 6  25177966.523          38.000       -4062.966
   8738642.540 7  23930199.854          46.000       -3060.205
   -564591.30714  25386906.025          26.000        1513.883
 -10949282.577 8  23190483.030          49.000        2161.800
  -5035858.91514  23978859.682          29.000        2393.393
 16  4  1 18 17  0.0000000  0 12G04G12G14G25G29G31S20G32G02G05G26G21
 -10456436.796 7  21938339.481          44.000        1762.782
  16993946.337 6  24285886.421          38.000       -4000.066
  16557488.232 6  24855627.305          39.000       -4051.965
   9799462.877 7  21511277.213          43.000       -2962.113
   -455213.398 7  20114551.525          45.000       -1232.626
  -3934216.348 8  20904098.772          49.000        -455.829
   3323320.536 6  38517294.861          39.000        -742.819
  17023809.286 6  25201161.283          36.000       -4062.886
   8830644.836 7  23947706.733          45.000       -3072.787
   -609855.37115  25378303.870          32.000        1501.982
 -11014071.343 8  23178153.980          49.000        2157.410
  -5107579.34915  23965213.804          30.000        2387.734
 16  4  1 18 17 30.0000000  0 12G04G12G14G25G29G31S20G32G02G05G26G21
 -10509205.077 7  21928301.435          45.000        1754.611
  17114011.467 6  24308733.974          37.000       -4003.934
  16679063.711 6  24878763.153          39.000       -4053.226
   9888464.454 6  21528211.044          41.000       -2971.850
   -417989.664 7  20121637.116          46.000       -1249.525
  -3920259.434 8  20906754.415          49.000        -475.076
   3345626.097 6  38521541.355          39.000        -743.948
  17145740.200 6  25224367.961          38.000       -4064.786
   8923027.811 7  23965286.466          45.000       -3085.860
   -654822.27615  25369739.303          33.000        1495.350
 -11078714.414 8  23165853.339          49.000        2151.921
  -5179139.30216  23951608.375          37.000        2382.924
 16  4  1 18 18  0.0000000  0 12G04G12G14G25G29G31S20G32G02G05G26G21
 -10561733.473 7  21918305.182          44.000        1747.328
  17234174.40515  24331604.055          33.000       -4006.667
  16800671.905 6  24901902.124          38.000       -4053.975
   9977764.254 7  21545204.345          42.000       -2981.387
   -380288.780 7  20128811.284          46.000       -1264.273
  -3905737.960 8  20909518.303          49.000        -493.212
   3367939.490 6  38525786.242          39.000        -744.181
  17267668.937 6  25247573.383          37.000       -4063.802
   9015778.365 7  23982936.925          46.000       -3097.487
   -699500.30115  25361237.993          33.000        1485.604
 -11143221.377 8  23153576.692          49.000        2148.340
  -5250546.410 6  23938025.963          41.000        2378.352
 16  4  1 18 18 30.0000000  0 12G04G12G14G25G29G31S20G32G02G05G26G21
 -10614016.558 7  21908355.853          44.000        1738.484
  17354436.561 5  24354490.818          33.000       -4010.721
  16922313.881 6  24925048.966          36.000       -4055.708
  10067365.334 7  21562256.105          43.000       -2992.224
   -342107.575 7  20136077.084          46.000       -1281.064
  -3890647.399 8  20912389.545          49.000        -512.499
   3390261.790 6  38530032.613          39.000        -743.997
  17389596.508 5  25270773.796          32.000       -4062.056
   9108898.741 7  24000657.482          45.000       -3110.087
   -743883.15515  25352788.633          30.000        1475.448
 -11207587.288 8  23141327.913          48.000        2143.111
  -5321794.731 7  23924468.837          42.000        2371.626
 16  4  1 18 19  0.0000000  0 12G04G12G14G25G29G31S20G32G02G05G26G21
 -10666048.386 7  21898457.584          45.000        1730.205
  17474803.42215  24377387.423          32.000       -4012.689
  17043991.032 6  24948204.148          36.000       -4056.167
  10157271.616 7  21579365.520          44.000       -3001.959
   -303443.246 7  20143435.090          46.000       -1296.726
  -3874982.440 8  20915371.333          49.000        -531.580
   3412599.224 6  38534282.701          39.000        -745.099
  17511525.00415  25293973.023          31.000       -4063.133
   9202391.184 7  24018447.961          45.000       -3122.628
   -787962.52815  25344398.237          33.000        1462.052
 -11271806.381 8  23129107.160          48.000        2138.251
  -5392877.514 6  23910942.562          41.000        2367.144
 16  4  1 18 19 30.0000000  0 11G04G14G25G29G31S20G32G02G05G26G21
 -10717840.004 7  21888598.368          44.000        1722.447
  17165688.508 6  24971363.152          37.000       -4055.695
  10247470.325 7  21596529.397          44.000       -3011.568
   -264308.952 7  20150881.866          46.000       -1312.235
  -3858754.589 8  20918458.591          48.000        -550.362
   3434941.440 6  38538534.272          39.000        -744.552
  17633438.08915  25317173.594          31.000       -4064.253
   9296241.761 7  24036306.235          44.000       -3134.327
   -831747.77315  25336066.595          33.000        1456.050
 -11335889.475 8  23116913.279          49.000        2134.022
  -5463804.509 6  23897443.789          39.000        2361.675
 16  4  1 18 20  0.0000000  0 12G04G12G14G25G29G31S20G32G02G05G26G21
 -10769384.336 7  21878788.553          44.000        1714.107
  17715685.39315  24423277.273          31.000       -4020.125
  17287408.768 6  24994524.320          36.000       -4056.946
  10337966.344 7  21613751.470          44.000       -3021.399
   -224700.135 7  20158416.957          45.000       -1328.120
  -3841957.413 8  20921655.348          48.000        -569.250
   3457294.970 6  38542789.019          39.000        -745.446
  17755340.41414  25340370.971          29.000       -4062.441
   9390453.933 7  24054234.083          44.000       -3146.043
   -875230.32215  25327796.902          33.000        1443.049
 -11399829.882 8  23104745.643          49.000        2129.095
  -5534567.859 6  23883976.043          38.000        2355.636
 16  4  1 18 20 30.0000000  0 12G04G12G14G25G29G31S20G32G02G05G26G21
 -10820672.642 7  21869030.653          45.000        1705.646
  17836342.63616  24446226.019          36.000       -4022.489
  17409156.798 5  25017690.915          34.000       -4059.686
  10428766.722 7  21631030.432          44.000       -3031.532
   -184610.191 7  20166045.128          44.000       -1344.384
  -3824582.736 8  20924961.554          48.000        -588.642
   3479669.392 6  38547046.174          40.000        -746.230
  17877235.50314  25363567.126          28.000       -4062.846
   9485033.469 7  24072230.894          44.000       -3158.714
   -918400.43115  25319579.961          32.000        1432.448
 -11463618.705 8  23092608.022          49.000        2124.111
  -5605157.306 6  23870540.614          37.000        2350.095
 16  4  1 18 21  0.0000000  0 13G04G12G14G25G29G31S20G32G02G05G16G26
                                G21
 -10871703.019 7  21859319.066          45.000        1697.101
  17957102.606 6  24469202.546          37.000       -4026.092
  17530930.106 5  25040867.143          33.000       -4061.325
  10519871.082 7  21648366.926          44.000       -3041.467
   -144040.080 7  20173765.244          44.000       -1360.351
  -3806629.702 8  20928376.858          48.000        -607.917
   3502063.433 6  38551310.135          40.000        -746.450
  17999120.73815  25386764.853          30.000       -4061.701
   9579978.550 7  24090298.989          44.000       -3170.742
   -961255.011 5  25311421.496          33.000        1422.918
   -603136.86713  25451273.893          21.000        2552.265
 -11527254.367 8  23080498.618          49.000        2118.870
  -5675570.557 5  23857136.369          35.000        2342.787
 16  4  1 18 21 30.0000000  0 14G04G12G14G25G29G31S20G32G02G05G16G26
                                G21G23
 -10922480.562 7  21849656.985          46.000        1688.103
  18077958.203 6  24492204.272          39.000       -4030.842
  17652718.85115  25064042.044          31.000       -4059.251
  10611272.206 7  21665758.948          43.000       -3052.091
   -102997.458 7  20181575.333          43.000       -1377.216
  -3788104.288 8  20931902.238          48.000        -627.683
   3524468.716 6  38555572.298          40.000        -747.586
  18120987.45315  25409952.667          30.000       -4062.503
   9675280.475 7  24108434.616          43.000       -3183.191
  -1003796.122 5  25303323.897          31.000        1412.741
   -679655.09513  25436706.835          23.000        2554.813
 -11590742.228 8  23068415.651          48.000        2113.030
  -5745811.789 5  23843767.652          34.000        2338.750
   -114364.58914  25648616.677          27.000         914.408
 16  4  1 18 22  0.0000000  0 13G04G12G14G25G29G31S20G32G02G05G16G26
                                G21
 -10972997.237 7  21840042.893          45.000        1679.308
  18198915.600 6  24515223.535          39.000       -4034.185
  17774527.13415  25087220.627          32.000       -4060.206
  10702976.059 7  21683209.497          43.000       -3062.365
    -61476.612 7  20189476.512          43.000       -1392.515
  -3768999.035 7  20935536.770          47.000        -647.151
   3546892.101 6  38559839.400          40.000        -747.615
  18242838.66015  25433144.355          32.000       -4062.833
   9770944.154 7  24126637.374          43.000       -3195.573
  -1046015.15015  25295291.387          33.000        1402.353
   -756146.52413  25422137.665          20.000        2543.670
 -11654074.283 7  23056363.065          47.000        2107.805
  -5815872.113 6  23830440.677          36.000        2332.990
 16  4  1 18 22 30.0000000  0 13G04G12G14G25G29G31S20G32G02G05G26G21
                                G23
 -11023252.404 7  21830480.208          45.000        1670.925
  18319973.068 6  24538255.588          40.000       -4036.804
  17896351.40615  25110403.067          31.000       -4060.310
  10794981.279 7  21700716.829          44.000       -3072.128
    -19479.507 7  20197466.636          42.000       -1407.619
  -3749314.138 8  20939284.291          48.000        -666.043
   3569336.578 6  38564111.178          40.000        -748.569
  18364671.89615  25456334.875          31.000       -4058.069
   9866966.505 7  24144911.644          44.000       -3206.345
  -1087910.263 6  25287320.860          36.000        1390.676
 -11717249.995 7  23044343.338          47.000        2103.384
  -5885749.886 6  23817144.553          36.000        2326.453
   -168502.36514  25638377.047          24.000         878.764
 16  4  1 18 23  0.0000000  0 12G04G12G14G25G29G31S20G02G05G26G21G23
 -11073249.862 7  21820967.972          46.000        1663.196
  18441124.714 6  24561309.298          40.000       -4040.443
  18018183.85215  25133590.480          32.000       -4061.142
  10887282.243 7  21718283.772          45.000       -3081.386
     22987.541 7  20205548.739          43.000       -1422.884
  -3729054.200 8  20943140.144          48.000        -684.607
   3591795.001 6  38568384.492          40.000        -748.887
   9963340.924 7  24163249.310          43.000       -3217.972
  -1129483.227 6  25279408.687          36.000        1380.938
 -11780273.177 8  23032351.513          48.000        2098.666
  -5955447.452 6  23803884.761          39.000        2319.683
   -194864.50414  25633424.570          27.000         867.771
 16  4  1 18 23 30.0000000  0 12G04G12G14G25G29G31S20G32G02G05G26G21
 -11122992.770 7  21811498.978          45.000        1653.453
  18562365.250 6  24584382.639          39.000       -4042.554
  18140016.61515  25156775.101          32.000       -4061.286
  10979873.402 7  21735905.560          46.000       -3091.476
     65918.559 7  20213719.576          44.000       -1438.876
  -3708223.521 8  20947104.537          48.000        -704.006
   3614261.192 6  38572660.406          40.000        -749.014
  18608241.26714  25502678.500          29.000       -4057.244
  10060060.368 7  24181655.084          43.000       -3230.178
  -1170736.093 5  25271554.048          32.000        1369.157
 -11843147.363 7  23020384.747          47.000        2093.202
  -6024967.611 6  23790657.374          40.000        2314.202
 16  4  1 18 24  0.0000000  0 13G04G12G14G25G29G31S20G32G02G05G26G21
                                G23
 -11172479.412 7  21802083.888          45.000        1645.619
  18683694.856 6  24607474.599          37.000       -4045.829
  18261847.69315  25179960.542          31.000       -4061.623
  11072754.589 7  21753575.999          44.000       -3100.779
    109312.967 7  20221978.223          44.000       -1454.212
  -3686821.105 8  20951176.423          48.000        -722.751
   3636734.875 6  38576937.071          40.000        -749.080
  18729977.99215  25525848.969          30.000       -4057.505
  10157123.226 7  24200127.064          43.000       -3240.903
  -1211664.69415  25263765.701          30.000        1359.582
 -11905870.775 7  23008449.077          46.000        2088.099
  -6094307.077 6  23777462.531          41.000        2308.543
   -246204.57613  25623690.455          23.000         835.832
 16  4  1 18 24 30.0000000  0 13G04G12G14G25G29G31S20G32G02G05G26G21
                                G23
 -11221702.978 7  21792719.769          46.000        1635.884
  18805117.535 6  24630581.427          36.000       -4049.327
  18383679.06415  25203142.179          30.000       -4062.059
  11165930.329 7  21771303.745          42.000       -3111.029
    153174.809 7  20230326.547          45.000       -1470.230
  -3664841.248 8  20955358.821          48.000        -742.705
   3659219.169 6  38581215.829          40.000        -750.304
  18851681.38814  25549004.902          27.000       -4058.784
  10254532.762 7  24218662.180          43.000       -3253.564
  -1252262.94114  25256020.126          24.000        1347.008
 -11968436.865 7  22996544.050          46.000        2082.575
  -6163459.136 6  23764300.460          39.000        2301.662
   -271128.52114  25618960.661          27.000         819.684
 16  4  1 18 25  0.0000000  0 13G04G12G14G25G29G31S20G32G02G05G26G21
                                G23
 -11270655.860 7  21783402.260          46.000        1626.867
  18926639.586 6  24653701.797          39.000       -4052.089
  18505514.58414  25226321.146          28.000       -4060.409
  11259406.499 7  21789093.562          42.000       -3121.225
    197509.714 7  20238761.756          44.000       -1485.677
  -3642276.813 8  20959653.075          49.000        -762.039
   3681722.565 6  38585497.031          40.000        -750.537
  18973354.86914  25572156.786          27.000       -4055.043
  10352293.286 7  24237265.665          43.000       -3264.143
  -1292518.22314  25248366.931          24.000        1333.019
 -12030837.860 7  22984667.013          44.000        2077.339
  -6232414.381 5  23751172.853          35.000        2296.461
   -295484.60512  25614356.211          16.000         806.069
 16  4  1 18 25 30.0000000  0 13G04G12G14G25G29G31S20G32G02G05G26G21
                                G23
 -11319343.868 7  21774137.678          46.000        1618.158
  19048252.309 6  24676841.728          39.000       -4055.676
  18627343.99614  25249503.639          25.000       -4060.792
  11353174.848 7  21806941.069          44.000       -3130.343
    242308.258 7  20247284.808          44.000       -1501.130
  -3619134.919 8  20964058.191          49.000        -781.172
   3704237.826 6  38589781.967          40.000        -751.364
  19094987.98114  25595310.991          25.000       -4052.508
  10450395.085 7  24255933.576          42.000       -3276.234
  -1332433.34115  25240783.957          31.000        1324.128
 -12093080.060 7  22972822.800          44.000        2071.513
  -6301177.49015  23738079.292          30.000        2289.373
   -319357.91414  25609791.793          27.000         786.984
 16  4  1 18 26  0.0000000  0 12G04G12G14G25G29G31S20G02G05G26G21G23
 -11367766.823 7  21764922.602          46.000        1609.774
  19169954.412 6  24700000.208          39.000       -4058.335
  18749163.14414  25272691.785          25.000       -4060.953
  11447233.711 7  21824838.762          43.000       -3140.196
    287568.545 7  20255897.154          43.000       -1516.387
  -3595416.319 8  20968571.917          49.000        -799.947
   3726766.767 6  38594069.049          40.000        -750.604
  10548835.426 7  24274665.879          42.000       -3286.057
  -1372015.73116  25233256.020          36.000        1313.237
 -12155163.123 7  22961011.358          44.000        2067.038
  -6369748.26615  23725031.554          32.000        2282.373
   -342749.21814  25605351.061          25.000         770.951
 16  4  1 18 26 30.0010000  0 12G04G12G25G29G31S20G32G02G05G26G21G23
 -11415919.883 7  21755758.498          46.000        1600.552
  19291753.843 6  24723175.912          40.000       -4061.537
  11541590.324 7  21842793.466          44.000       -3150.460
    333295.559 7  20264597.902          43.000       -1531.852
  -3571115.205 8  20973196.224          49.000        -819.625
   3749316.076 6  38598360.808          40.000        -751.482
  19338142.05214  25641580.802          26.000       -4051.574
  10647620.278 6  24293462.747          41.000       -3298.513
  -1411253.647 5  25225788.095          35.000        1301.992
 -12217083.058 7  22949227.715          43.000        2061.480
  -6438121.709 5  23712024.947          35.000        2275.127
   -365731.84914  25600993.637          28.000         755.825
 16  4  1 18 27  0.0010000  0 11G04G12G25G29G31S20G02G05G26G21G23
 -11463801.642 7  21746647.408          47.000        1591.583
  19413638.803 6  24746366.414          40.000       -4064.069
  11636234.713 7  21860801.009          43.000       -3159.627
    379482.168 7  20273387.682          43.000       -1547.714
  -3546235.411 8  20977929.386          48.000        -838.696
   3771879.589 6  38602653.334          40.000        -751.990
  10746737.837 7  24312326.520          43.000       -3309.127
  -1450144.666 5  25218386.672          33.000        1291.549
 -12278837.376 7  22937472.812          42.000        2055.604
  -6506293.432 6  23699058.964          38.000        2268.430
   -388152.34713  25596659.352          19.000         737.226
 16  4  1 18 27 30.0010000  0 12G04G12G25G29G31S20G32G02G05G26G21G23
 -11511417.741 7  21737586.382          47.000        1582.542
  19535607.191 6  24769576.582          39.000       -4066.900
  11731163.809 7  21878865.928          44.000       -3169.029
    426123.193 7  20282265.428          44.000       -1562.478
  -3520781.352 8  20982773.340          48.000        -858.108
   3794451.118 6  38606949.508          40.000        -752.921
  19581056.51913  25687811.350          22.000       -4048.554
  10846183.775 7  24331249.239          42.000       -3320.098
  -1488693.021 5  25211050.426          33.000        1280.603
 -12340432.261 7  22925750.332          42.000        2049.756
  -6574268.827 6  23686126.451          40.000        2263.468
   -410082.14814  25592493.095          25.000         722.938
 16  4  1 18 28  0.0010000  0 12G04G12G14G25G29G31S20G02G05G26G21G23
 -11558766.621 7  21728574.270          46.000        1573.518
  19657658.770 6  24792804.864          38.000       -4069.471
  19236151.63613  25365383.677          21.000       -4054.860
  11826377.201 7  21896987.002          45.000       -3178.514
    473217.471 7  20291227.510          44.000       -1577.592
  -3494752.508 8  20987726.724          48.000        -877.136
   3817031.361 6  38611245.961          40.000        -752.436
  10945956.903 7  24350234.867          42.000       -3331.536
  -1526895.69714  25203768.712          29.000        1266.259
 -12401866.347 7  22914064.479          44.000        2044.660
  -6642045.777 6  23673230.286          40.000        2255.635
   -431539.66514  25588442.795          24.000         706.831
 16  4  1 18 28 30.0010000  0 12G04G12G25G29G31S20G32G02G05G26G21G23
 -11605846.688 7  21719617.439          47.000        1564.383
  19779792.609 6  24816045.988          37.000       -4072.617
  11921874.213 7  21915159.728          44.000       -3188.298
    520763.708 7  20300274.262          44.000       -1592.997
  -3468148.657 8  20992789.207          48.000        -896.854
   3839623.828 6  38615545.486          40.000        -753.304
  19823703.76713  25733987.226          21.000       -4048.798
  11046054.214 6  24369282.530          41.000       -3341.926
  -1564749.60714  25196568.159          29.000        1255.444
 -12463138.100 7  22902404.959          45.000        2039.345
  -6709621.840 6  23660371.675          40.000        2249.459
   -452633.14014  25584457.793          26.000         689.955
 16  4  1 18 29  0.0010000  0 12G04G12G14G25G29G31S20G32G02G05G26G21
 -11652654.224 7  21710710.237          47.000        1555.337
  19902010.337 6  24839302.993          36.000       -4075.804
  19479632.47313  25411724.126          18.000       -4051.908
  12017656.303 7  21933384.230          43.000       -3197.985
    568763.025 7  20309407.461          43.000       -1607.743
  -3440967.055 8  20997962.638          49.000        -915.518
   3862227.580 6  38619846.737          40.000        -753.590
  19944950.86813  25757074.492          22.000       -4048.845
  11146475.890 6  24388393.049          41.000       -3353.057
  -1602249.38715  25189440.896          34.000        1244.788
 -12524244.079 7  22890774.232          45.000        2033.852
  -6776992.419 6  23647550.110          40.000        2241.412
 16  4  1 18 29 30.0010000  0 12G04G12G25G29G31S20G32G02G05G26G21G23
 -11699187.345 7  21701853.187          46.000        1546.708
  20024312.414 5  24862580.048          33.000       -4079.268
  12113723.445 7  21951664.240          43.000       -3206.950
    617214.904 7  20318629.553          44.000       -1622.709
  -3413206.845 8  21003244.382          49.000        -934.917
   3884843.453 6  38624151.375          40.000        -753.908
  20066134.88313  25780137.538          19.000       -4039.727
  11247221.043 6  24407564.312          40.000       -3363.577
  -1639392.29315  25182372.145          35.000        1233.533
 -12585182.241 7  22879180.412          46.000        2028.845
  -6844154.801 6  23634767.354          40.000        2235.960
   -493223.44914  25576699.863          24.000         660.306
 16  4  1 18 30  0.0010000  0 12G04G12G14G25G29G31S20G02G05G26G21G23
 -11745444.259 7  21693051.350          46.000        1537.077
  20146697.40815  24885873.017          31.000       -4081.758
  19722872.93311  25458039.900          11.000       -4038.353
  12210075.148 7  21970001.801          44.000       -3216.689
    666118.062 7  20327935.317          44.000       -1637.897
  -3384867.707 8  21008637.058          49.000        -954.375
   3907468.940 6  38628457.460          40.000        -754.145
  11348287.621 6  24426798.831          40.000       -3374.742
  -1676175.480 6  25175372.269          37.000        1220.276
 -12645951.140 7  22867616.310          47.000        2022.865
  -6911106.657 6  23622024.699          38.000        2228.203
   -512772.86014  25572976.911          27.000         642.139
 16  4  1 18 30 30.0010000  0 10G04G12G25G29G31S20G02G05G26G21
 -11791423.958 7  21684302.108          46.000        1528.234
  20269165.06014  24909184.292          28.000       -4082.222
  12306710.516 7  21988390.213          43.000       -3225.606
    715470.975 7  20337327.129          45.000       -1652.859
  -3355949.360 8  21014140.089          49.000        -973.339
   3930102.431 6  38632761.888          40.000        -754.298
  11449673.267 6  24446093.991          41.000       -3383.802
  -1712596.428 6  25168441.060          38.000        1207.857
 -12706549.545 7  22856082.885          47.000        2017.034
  -6977845.631 6  23609323.488          37.000        2220.860
 16  4  1 18 31  0.0010000  0 10G04G12G25G29G31S20G02G05G26G21
 -11837124.612 7  21675605.949          46.000        1518.685
  20391714.68815  24932503.978          31.000       -4087.487
  12403628.942 7  22006834.674          44.000       -3235.057
    765272.403 7  20346803.836          45.000       -1667.202
  -3326451.713 8  21019753.510          49.000        -992.729
   3952747.127 6  38637073.016          40.000        -755.155
  11551375.869 6  24465444.729          41.000       -3395.873
  -1748651.245 5  25161571.433          33.000        1195.474
 -12766975.939 8  22844586.559          48.000        2011.374
  -7044369.204 6  23596665.816          38.000        2213.438
 16  4  1 18 31 30.0010000  0 11G04G12G25G29G31S20G02G05G26G21G23
 -11882552.248 7  21666961.826          46.000        1509.597
  20514337.92715  24955830.085          34.000       -4088.701
  12500822.321 7  22025329.409          44.000       -3244.166
    815513.813 7  20356366.067          45.000       -1682.277
  -3296381.947 8  21025475.855          49.000       -1011.793
   3975395.965 6  38641383.465          40.000        -755.673
  11653386.033 7  24484858.341          42.000       -3405.008
  -1784345.007 6  25154784.991          37.000        1182.665
 -12827236.439 8  22833119.777          48.000        2005.484
  -7110682.544 6  23584046.638          39.000        2206.485
   -568438.76214  25562407.192          26.000         593.230
 16  4  1 18 32  0.0010000  0 11G04G12G25G29G31S20G02G05G26G21G23
 -11927697.322 7  21658371.677          47.000        1500.275
  20637042.631 5  24979176.086          33.000       -4092.482
  12598298.009 7  22043878.118          44.000       -3253.686
    866202.116 7  20366008.569          43.000       -1696.848
  -3265731.712 8  21031306.898          48.000       -1030.991
   3998056.550 6  38645694.244          40.000        -755.006
  11755709.746 6  24504328.631          41.000       -3415.375
  -1819666.908 6  25148069.467          40.000        1170.932
 -12887321.543 7  22821683.515          47.000        2000.172
  -7176775.213 6  23571472.203          41.000        2199.852
   -586056.39515  25559076.801          31.000         576.112
 16  4  1 18 32 30.0010000  0 11G04G12G25G29G31S20G02G05G26G21G23
 -11972559.887 7  21649834.088          47.000        1491.243
  20759826.405 5  25002542.678          34.000       -4094.406
  12696053.894 7  22062479.457          44.000       -3262.788
    917334.121 7  20375737.990          43.000       -1711.307
  -3234502.216 8  21037249.709          48.000       -1050.151
   4020725.765 6  38650007.502          40.000        -755.918
  11858343.369 6  24523857.588          40.000       -3426.027
  -1854616.037 7  25141420.340          42.000        1159.366
 -12947231.340 8  22810283.968          48.000        1994.380
  -7242646.679 6  23558938.113          41.000        2192.018
   -603101.52614  25555823.190          26.000         558.914
 16  4  1 18 33  0.0010000  0 11G04G12G25G29G31S20G02G05G26G21G23
 -12017142.148 7  21641348.205          47.000        1481.967
  20882684.882 5  25025923.736          33.000       -4096.845
  12794085.554 7  22081132.763          43.000       -3271.961
    968905.469 7  20385551.801          43.000       -1726.171
  -3202697.087 8  21043301.287          48.000       -1069.418
   4043400.932 6  38654320.515          40.000        -756.090
  11961281.319 6  24543446.051          39.000       -3436.099
  -1889193.856 6  25134838.903          41.000        1146.507
 -13006968.110 7  22798916.111          47.000        1988.838
  -7308298.332 6  23546444.996          41.000        2184.978
   -619652.69814  25552701.974          26.000         543.897
 16  4  1 18 33 30.0010000  0 12G04G12G25G29G31S20G02G05G16G26G21G23
 -12061442.452 7  21632918.336          47.000        1471.693
  21005617.76015  25049321.581          31.000       -4097.465
  12892392.477 7  22099838.995          43.000       -3282.061
   1020914.279 7  20395448.343          43.000       -1741.065
  -3170316.211 8  21049464.722          48.000       -1089.361
   4066083.621 6  38658638.240          40.000        -756.550
  12064521.557 6  24563091.454          38.000       -3447.262
  -1923396.161 6  25128325.679          39.000        1134.658
  -2482594.83414  25088512.938          27.000        2531.632
 -13066530.249 7  22787580.851          46.000        1982.139
  -7373727.414 6  23533993.097          40.000        2177.052
   -635709.21914  25549625.745          29.000         527.346
 16  4  1 18 34  0.0010000  0 12G04G12G25G29G31S20G02G05G16G26G21G23
 -12105455.352 7  21624543.785          47.000        1461.950
  21128628.11315  25072726.738          31.000       -4101.893
  12990977.725 7  22118602.254          44.000       -3291.200
   1073363.459 7  20405431.857          45.000       -1755.989
  -3137355.567 8  21055736.435          49.000       -1108.742
   4088779.362 6  38662957.326          40.000        -756.732
  12168065.620 6  24582792.209          37.000       -3456.329
  -1957217.091 6  25121884.368          37.000        1120.646
  -2558499.02914  25074064.786          24.000        2529.019
 -13125912.585 7  22776283.720          47.000        1976.360
  -7438928.197 6  23521584.439          40.000        2170.137
   -651264.30814  25546665.141          28.000         509.967
 16  4  1 18 34 30.0010000  0 11G04G12G25G29G31S20G02G05G16G26G21
 -12149183.108 7  21616222.648          47.000        1452.363
  21251711.49015  25096145.401          32.000       -4103.638
  13089837.199 7  22137416.835          45.000       -3300.342
   1126248.358 7  20415495.537          45.000       -1770.337
  -3103818.189 8  21062118.485          49.000       -1127.924
   4111486.274 6  38667278.802          40.000        -757.910
  12271908.129 6  24602552.242          37.000       -3466.238
  -1990657.071 6  25115526.905          39.000        1108.532
  -2634367.33313  25059619.339          21.000        2527.726
 -13185117.115 7  22765018.383          46.000        1970.429
  -7503901.533 6  23509218.621          40.000        2161.832
 16  4  1 18 35  0.0010000  0 11G04G12G25G29G31S20G02G05G26G21G23
 -12192620.355 8  21607959.883          48.000        1443.414
  21374871.13415  25119581.393          34.000       -4105.298
  13188973.661 7  22156282.788          46.000       -3308.345
   1179570.910 7  20425641.913          45.000       -1783.971
  -3069700.819 8  21068611.711          49.000       -1146.398
   4134205.796 6  38671601.937          40.000        -757.125
  12376050.425 6  24622371.815          37.000       -3475.340
  -2023710.328 6  25109240.847          40.000        1095.700
 -13244138.924 7  22753783.688          44.000        1965.095
  -7568641.938 6  23496900.617          41.000        2154.565
   -681037.41315  25541023.678          31.000         477.668
 16  4  1 18 35 30.0010000  0 11G04G12G25G29G31S20G02G05G26G21G23
 -12235776.267 7  21599745.559          47.000        1433.927
  21498096.339 6  25143029.826          36.000       -4108.212
  13288376.357 7  22175197.097          44.000       -3317.727
   1233319.923 7  20435872.348          46.000       -1798.513
  -3035013.457 8  21075213.094          49.000       -1165.858
   4156926.976 6  38675926.467          40.000        -756.576
  12480480.575 6  24642244.856          37.000       -3486.014
  -2056384.408 6  25103022.986          41.000        1082.683
 -13302986.655 7  22742587.786          44.000        1958.490
  -7633157.123 6  23484623.604          41.000        2146.153
   -695096.91615  25538352.591          34.000         461.078
 16  4  1 18 36  0.0010000  0 12G04G12G25G29G31S20G02G05G16G26G21G23
 -12278639.327 7  21591587.199          46.000        1423.906
  21621395.573 5  25166493.476          35.000       -4112.511
  13388053.999 7  22194163.250          44.000       -3327.090
   1287503.331 7  20446181.710          46.000       -1813.221
  -2999746.757 8  21081923.785          49.000       -1185.299
   4179658.282 6  38680252.341          40.000        -757.980
  12585205.605 6  24662172.097          37.000       -3496.049
  -2088666.535 6  25096878.590          38.000        1069.836
  -2861735.80414  25016345.364          24.000        2525.658
 -13361649.415 7  22731426.312          43.000        1952.495
  -7697435.462 7  23472395.469          43.000        2138.463
   -708651.77715  25535771.581          32.000         444.005
 16  4  1 18 36 30.0010000  0 12G04G12G25G29G31S20G02G05G16G26G21G23
 -12321213.430 7  21583486.685          46.000        1414.384
  21744763.255 5  25189971.505          34.000       -4114.024
  13488000.650 7  22213180.934          44.000       -3335.916
   1342114.724 7  20456574.204          46.000       -1827.786
  -2963905.617 8  21088743.399          49.000       -1204.602
   4202392.721 6  38684576.907          40.000        -757.869
  12690218.194 6  24682157.884          38.000       -3504.430
  -2120560.129 5  25090805.198          35.000        1056.523
  -2937466.71914  25001935.131          25.000        2523.649
 -13420130.991 6  22720292.899          41.000        1946.792
  -7761479.612 7  23460209.127          45.000        2131.382
   -721784.88314  25533288.363          29.000         427.481
 16  4  1 18 37  0.0010000  0 11G04G12G25G29G31S20G02G05G16G26G21
 -12363492.917 7  21575441.105          46.000        1404.779
  21868203.135 5  25213464.419          32.000       -4115.732
  13588220.040 7  22232255.069          45.000       -3345.362
   1397156.770 7  20467047.703          46.000       -1841.677
  -2927485.848 8  21095672.898          49.000       -1223.443
   4225136.063 6  38688906.149          40.000        -757.755
  12795520.733 6  24702197.836          38.000       -3514.086
  -2152057.279 5  25084806.355          35.000        1043.885
  -3013166.85513  24987519.157          21.000        2528.882
 -13478425.536 7  22709201.575          43.000        1940.650
  -7825283.135 7  23448066.288          45.000        2122.945
 16  4  1 18 37 30.0010000  0 11G04G12G25G29G31S20G02G05G16G26G21
 -12405482.430 7  21567450.965          47.000        1394.979
  21991708.04515  25236962.045          30.000       -4118.251
  13688705.118 7  22251377.366          45.000       -3354.366
   1452622.052 7  20477600.705          45.000       -1856.137
  -2890493.556 8  21102713.154          49.000       -1242.494
   4247884.044 6  38693234.012          40.000        -757.863
  12901104.613 6  24722286.335          37.000       -3524.169
  -2183161.524 6  25078892.057          37.000        1030.035
  -3088826.66013  24973100.583          23.000        2517.670
 -13536537.930 7  22698145.833          45.000        1933.418
  -7888850.324 7  23435968.383          43.000        2115.511
 16  4  1 18 38  0.0010000  0 11G04G12G25G29G31S20G02G05G16G26G21
 -12447176.786 7  21559517.729          47.000        1384.609
  22115280.90714  25260474.433          27.000       -4123.592
  13789458.725 7  22270549.065          45.000       -3363.500
   1508512.914 7  20488235.914          44.000       -1870.585
  -2852925.445 8  21109862.595          49.000       -1261.831
   4270639.565 6  38697564.336          40.000        -758.351
  13006971.534 6  24742433.815          37.000       -3534.421
  -2213867.717 6  25073050.160          36.000        1016.290
  -3164453.88614  24958715.199          27.000        2520.140
 -13594463.062 7  22687120.925          45.000        1927.412
  -7952175.360 7  23423915.344          42.000        2106.769
 16  4  1 18 38 30.0010000  0 11G04G12G25G29G31S20G02G05G16G26G21
 -12488570.466 7  21551639.759          47.000        1374.562
  22238925.04014  25283987.677          25.000       -4123.302
  13890484.170 7  22289770.794          44.000       -3372.152
   1564831.768 7  20498954.920          45.000       -1884.375
  -2814777.533 8  21117121.537          48.000       -1281.222
   4293404.085 6  38701895.532          40.000        -759.362
  13113123.268 6  24762633.228          37.000       -3544.175
  -2244168.557 5  25067283.195          35.000        1002.844
  -3240034.68015  24944353.094          32.000        2519.752
 -13652195.496 7  22676134.093          46.000        1921.455
  -8015251.620 7  23411911.967          42.000        2099.030
 16  4  1 18 39  0.0010000  0 11G04G12G25G29G31S20G02G05G16G26G21
 -12529664.675 7  21543819.164          47.000        1364.511
  22362636.75614  25307534.669          26.000       -4125.447
  13991778.001 7  22309047.631          44.000       -3380.937
   1621574.403 7  20509753.952          46.000       -1898.639
  -2776052.757 8  21124490.310          48.000       -1300.648
   4316176.976 6  38706229.329          40.000        -759.637
  13219555.039 6  24782885.305          37.000       -3552.291
  -2274064.247 6  25061598.874          37.000         989.055
  -3315573.387 5  24929984.184          33.000        2515.830
 -13709736.483 7  22665186.054          47.000        1914.913
  -8078079.920 7  23399956.840          43.000        2090.252
 16  4  1 18 39 30.0010000  0 11G04G12G25G29G31S20G02G05G16G26G21
 -12570455.081 8  21536058.512          48.000        1354.494
  22486419.15614  25331096.512          27.000       -4127.472
  14093342.446 7  22328377.761          45.000       -3390.590
   1678742.726 7  20520631.860          46.000       -1912.923
  -2736747.843 8  21131970.067          48.000       -1320.094
   4338962.224 6  38710564.120          40.000        -759.878
  13326267.621 5  24803191.600          35.000       -3561.194
  -2303549.227 5  25055979.101          33.000         976.601
  -3391066.344 5  24915619.374          31.000        2515.757
 -13767081.706 7  22654271.902          47.000        1907.535
  -8140654.944 7  23388050.086          43.000        2081.046
 16  4  1 18 40  0.0010000  0 11G04G12G25G29G31S20G02G05G16G26G21
 -12610939.223 8  21528354.869          48.000        1344.619
  22610272.29014  25354673.640          28.000       -4128.588
  14195177.667 7  22347757.309          46.000       -3398.587
   1736336.737 7  20531590.998          46.000       -1926.739
  -2696862.379 8  21139559.969          48.000       -1338.896
   4361761.635 6  38714903.029          40.000        -759.604
  13433259.855 6  24823554.730          36.000       -3570.840
  -2332619.749 5  25050446.387          34.000         961.894
  -3466511.124 5  24901274.894          32.000        2514.913
 -13824228.603 7  22643395.827          46.000        1901.445
  -8202973.488 7  23376191.738          44.000        2073.399
 16  4  1 18 40 30.0010000  0 10G04G25G29G31S20G02G05G16G26G21
 -12651116.345 7  21520708.532          47.000        1333.747
  14297282.161 7  22367184.550          44.000       -3408.072
   1794353.590 7  20542630.895          46.000       -1940.570
  -2656397.129 8  21147260.488          48.000       -1358.454
   4384577.004 6  38719245.097          40.000        -760.495
  13540528.852 5  24843968.291          35.000       -3581.046
  -2361274.320 6  25044999.092          37.000         948.013
  -3541907.43115  24886928.808          33.000        2510.557
 -13881176.538 8  22632561.441          48.000        1895.011
  -8265034.055 7  23364382.373          44.000        2064.467
 16  4  1 18 41  0.0010000  0 10G04G25G29G31S20G02G05G16G26G21
 -12690984.491 7  21513122.277          47.000        1323.795
  14399655.610 7  22386663.373          44.000       -3416.825
   1852792.240 7  20553751.937          45.000       -1955.210
  -2615351.921 8  21155071.939          48.000       -1377.778
   4407407.078 6  38723591.510          40.000        -760.900
  13648072.831 5  24864428.078          32.000       -3589.303
  -2389509.499 6  25039628.142          37.000         934.063
  -3617254.241 6  24872586.107          36.000        2510.130
 -13937923.633 7  22621762.164          47.000        1888.403
  -8326834.193 7  23352622.671          45.000        2055.789
 16  4  1 18 41 30.0010000  0 11G04G25G29G31S20G02G05G16G26G21G23
 -12730536.814 7  21505594.951          47.000        1312.878
  14502302.007 7  22406196.762          44.000       -3426.741
   1911656.275 7  20564955.011          46.000       -1969.712
  -2573722.783 8  21162992.645          48.000       -1397.478
   4430254.554 6  38727939.075          40.000        -761.894
  13755894.31715  24884955.520          33.000       -3599.403
  -2417318.442 6  25034331.338          38.000         919.769
  -3692545.518 5  24858253.406          35.000        2508.566
 -13994463.632 7  22611002.761          47.000        1881.011
  -8388366.911 7  23340913.086          44.000        2045.987
   -826354.65814  25513776.664          27.000         255.385
 16  4  1 18 42  0.0000000  0 11G04G25G29G31S20G02G05G16G26G21G23
 -12769778.105 7  21198335.077          47.000        1303.197
  14605215.294 7  22125990.641          45.000       -3434.295
   1970938.773 7  20276442.656          45.000       -1982.862
  -2531514.569 8  20871232.403          48.000       -1416.170
   4453113.954 6  38432495.179          40.000        -761.653
  13863986.086 5  24605735.406          34.000       -3608.211
  -2444704.289 6  24729329.871          39.000         905.836
  -3767785.494 5  24544151.441          32.000        2508.237
 -14050800.378 7  22300489.678          46.000        1874.536
  -8449635.523 7  23029462.089          44.000        2038.457
   -833767.55214  25212596.096          29.000         238.737
 16  4  1 18 42 30.0000000  0 11G04G25G29G31S20G02G05G16G26G21G23
 -12808705.270 7  21190926.884          47.000        1292.537
  14708395.986 7  22145626.447          45.000       -3443.658
   2030639.604 7  20287801.806          45.000       -1997.498
  -2488726.293 8  20879375.704          48.000       -1436.436
   4475984.191 6  38436846.426          40.000        -762.199
  13972347.120 5  24626346.573          33.000       -3616.412
  -2471662.639 6  24724193.417          36.000         892.085
  -3842972.10314  24529857.130          28.000        2505.027
 -14106931.114 7  22289806.934          45.000        1867.274
  -8510636.497 7  23017853.907          44.000        2028.501
   -840658.72414  25211280.385          28.000         220.521
 16  4  1 18 43  0.0000000  0 11G04G12G25G29G31S20G02G05G26G21G23
 -12847318.213 7  21183579.662          47.000        1281.725
  23354209.57414  25196558.072          27.000       -4143.170
  14811841.954 7  22165309.961          44.000       -3452.388
   2090756.204 7  20299241.052          45.000       -2011.083
  -2445359.918 8  20887628.645          48.000       -1455.303
   4498865.780 6  38441200.692          40.000        -763.176
  14080973.897 5  24647018.677          35.000       -3625.380
  -2498192.393 6  24719146.203          37.000         877.598
 -14162855.653 7  22279166.053          44.000        1860.558
  -8571369.001 7  23006295.459          44.000        2019.622
   -847029.66914  25210065.501          25.000         204.416
 16  4  1 18 43 30.0000000  0 12G04G12G25G29G31S20G02G05G16G26G21G23
 -12885616.860 7  21176292.311          47.000        1271.216
  23478536.06914  25220231.684          29.000       -4143.617
  14915550.761 7  22185044.831          44.000       -3460.989
   2151285.197 7  20310760.796          46.000       -2024.559
  -2401417.385 7  20895988.050          47.000       -1474.442
   4521758.286 6  38445556.074          41.000        -763.438
  14189862.544 6  24667749.082          38.000       -3634.334
  -2524293.071 6  24714179.906          36.000         862.958
  -3993185.40715  24501266.728          31.000        2502.703
 -14218574.218 7  22268565.674          44.000        1854.049
  -8631832.328 7  22994787.721          43.000        2009.990
   -852880.08415  25208948.879          32.000         187.129
 16  4  1 18 44  0.0000000  0 11G04G12G25G29G31S20G02G05G26G21G23
 -12923591.371 7  21169064.291          47.000        1260.704
  23602933.60414  25243903.305          28.000       -4147.518
  15019530.124 7  22204832.121          44.000       -3470.746
   2212234.230 7  20322359.990          46.000       -2038.638
  -2356890.284 7  20904461.544          47.000       -1493.620
   4544670.315 6  38449918.419          40.000        -763.387
  14299019.658 6  24688515.958          36.000       -3643.355
  -2549953.700 6  24709298.033          36.000         848.675
 -14274076.747 7  22258002.498          44.000        1846.691
  -8692016.191 7  22983335.265          43.000        2001.395
   -858201.02414  25207928.634          29.000         168.086
 16  4  1 18 44 30.0000000  0 11G04G12G25G29G31S20G02G05G26G21G23
 -12961244.551 7  21161899.284          47.000        1249.739
  23727396.95014  25267584.612          29.000       -4149.681
  15123774.884 7  22224670.401          44.000       -3479.061
   2273596.714 7  20334035.844          44.000       -2052.304
  -2311783.582 8  20913045.219          48.000       -1513.187
   4567594.725 6  38454279.909          41.000        -764.615
  14408438.773 5  24709330.421          34.000       -3651.727
  -2575175.914 6  24704502.033          37.000         833.624
 -14329366.118 7  22247480.488          44.000        1839.102
  -8751922.772 7  22971934.828          43.000        1992.289
   -862995.98814  25207013.493          29.000         151.366
 16  4  1 18 45  0.0000000  0 11G04G25G29G31S20G02G05G16G26G21G23
 -12998573.992 8  21154796.121          48.000        1239.268
  15228285.181 7  22244558.973          45.000       -3487.194
   2335372.359 7  20345789.525          44.000       -2065.806
  -2266096.660 8  20921740.348          48.000       -1532.197
   4590534.053 6  38458643.877          40.000        -764.696
  14518118.269 6  24730209.833          37.000       -3660.116
  -2599957.372 5  24699781.417          34.000         818.386
  -4218145.65915  24458452.567          32.000        2496.344
 -14384440.004 7  22237002.697          46.000        1832.731
  -8811548.967 7  22960587.807          43.000        1983.047
   -867263.19214  25206201.674          28.000         134.356
 16  4  1 18 45 30.0000000  0 10G04G25G29G31S20G02G05G16G26G21
 -13035576.014 8  21147755.603          48.000        1227.849
  15333062.415 7  22264496.196          44.000       -3497.264
   2397562.015 7  20357626.322          45.000       -2080.445
  -2219827.615 8  20930543.442          48.000       -1552.487
   4613492.733 6  38463013.272          40.000        -765.997
  14628058.308 5  24751132.225          35.000       -3669.682
  -2624292.09615  24695148.734          32.000         803.099
  -4292979.22915  24444207.029          34.000        2494.049
 -14439294.569 7  22226560.731          45.000        1824.223
  -8870890.331 7  22949296.923          44.000        1973.095
 16  4  1 18 46  0.0000000  0 11G04G25G29G31S20G02G05G16G26G21G23
 -13072253.791 8  21140776.581          48.000        1216.876
  15438101.136 7  22284479.975          43.000       -3505.869
   2460159.631 7  20369538.120          45.000       -2094.335
  -2172981.549 7  20939457.764          47.000       -1571.749
   4636465.480 6  38467384.551          40.000        -766.898
  14738251.971 5  24772093.497          33.000       -3676.241
  -2648182.52514  24690601.189          29.000         788.188
  -4367752.27915  24429970.391          32.000        2492.295
 -14493933.031 7  22216165.252          46.000        1817.395
  -8929949.487 7  22938058.808          43.000        1963.182
   -874523.86214  25204911.003          25.000          97.217
 16  4  1 18 46 30.0000000  0 11G04G25G29G31S20G02G05G16G26G21G23
 -13108603.727 8  21133859.210          49.000        1205.850
  15543402.693 7  22304520.940          44.000       -3514.865
   2523165.569 7  20381527.623          45.000       -2107.937
  -2125557.066 8  20948483.941          48.000       -1590.567
   4659457.764 6  38471760.071          40.000        -766.844
  14848699.013 5  24793110.330          34.000       -3685.622
  -2671624.35815  24686150.773          31.000         776.225
  -4442461.28415  24415752.372          31.000        2485.996
 -14548351.719 7  22205809.438          46.000        1809.949
  -8988722.489 7  22926874.824          44.000        1953.950
   -877201.93711  25204443.337           8.000          83.042
 16  4  1 18 47  0.0000000  0 11G04G25G29G31S20G02G05G16G26G21G23
 -13144619.106 8  21127006.439          48.000        1194.863
  15648971.298 7  22324611.114          45.000       -3524.123
   2586583.408 7  20393593.838          44.000       -2120.806
  -2077549.335 8  20957620.753          48.000       -1610.267
   4682472.805 6  38476139.762          40.000        -767.700
  14959402.808 6  24814183.527          36.000       -3694.252
  -2694611.22816  24681786.299          36.000         759.812
  -4517100.44414  24401556.865          27.000        2487.523
 -14602544.040 7  22195493.166          45.000        1802.172
  -9047201.617 7  22915745.912          44.000        1944.503
   -879355.73215  25203974.083          30.000          63.235
 16  4  1 18 47 30.0000000  0 11G04G12G25G29G31S20G02G05G26G21G23
 -13180300.560 7  21120214.954          47.000        1184.269
  24474995.82514  25409950.433          26.000       -4162.616
  15754803.989 7  22344751.823          45.000       -3531.900
   2650410.024 7  20405741.842          44.000       -2134.650
  -2028961.016 7  20966865.634          47.000       -1629.024
   4705506.908 6  38480522.402          40.000        -767.853
  15070358.835 6  24835297.714          36.000       -3701.734
  -2717142.232 6  24677494.488          36.000         743.793
 -14656510.651 7  22185224.899          45.000        1795.397
  -9105387.231 7  22904673.400          44.000        1934.670
   -880965.74914  25203653.907          26.000          44.427
 16  4  1 18 48  0.0000000  0 11G04G12G25G29G31S20G02G05G26G21G23
 -13215656.544 7  21113486.779          47.000        1173.280
  24599905.95514  25433730.665          28.000       -4164.765
  15860890.393 7  22364939.509          46.000       -3540.110
   2714633.823 7  20417961.846          44.000       -2147.404
  -1979802.123 7  20976219.387          47.000       -1647.557
   4728548.993 6  38484907.031          40.000        -768.415
  15181555.497 6  24856455.336          36.000       -3710.380
  -2739224.201 6  24673290.940          36.000         729.483
 -14710259.718 7  22174997.344          45.000        1788.327
  -9163286.942 7  22893654.931          45.000        1925.448
   -882052.91313  25203436.268          23.000          22.520
 16  4  1 18 48 30.0000000  0 11G04G25G29G31S20G02G05G16G26G21G23
 -13250674.094 7  21106824.303          47.000        1161.017
  15967240.743 7  22385176.439          45.000       -3549.959
   2779264.723 7  20430262.539          45.000       -2161.623
  -1930062.386 7  20985681.506          46.000       -1667.857
   4751608.966 6  38489294.818          40.000        -769.257
  15293001.432 5  24877660.509          34.000       -3720.650
  -2760843.824 6  24669178.691          37.000         711.651
  -4740767.40814  24359042.498          28.000        2479.271
 -14763778.523 7  22164809.331          43.000        1779.817
  -9220887.636 7  22882694.240          45.000        1914.517
   -882606.23014  25203345.404          27.000           7.518
 16  4  1 18 49  0.0000000  0 11G04G25G29G31S20G02G05G16G26G21G23
 -13285341.774 7  21100224.857          47.000        1149.857
  16073864.152 7  22405463.330          43.000       -3559.249
   2844310.951 7  20442639.420          45.000       -2175.043
  -1879731.867 7  20995262.094          47.000       -1687.729
   4774697.571 6  38493688.312          40.000        -770.604
  15404705.03515  24898917.788          33.000       -3726.118
  -2781988.819 6  24665155.107          36.000         697.488
  -4815113.60913  24344913.563          20.000        2473.968
 -14817055.557 7  22154674.507          44.000        1771.655
  -9278176.901 7  22871793.002          45.000        1904.018
   -882605.59615  25203347.621          30.000          -9.008
 16  4  1 18 49 30.0000000  0 11G04G25G29G31S20G02G05G16G26G21G23
 -13319672.176 8  21093694.462          48.000        1139.227
  16180745.833 7  22425800.128          43.000       -3566.078
   2909757.126 7  20455093.972          45.000       -2187.777
  -1828825.585 7  21004948.972          47.000       -1706.272
   4797803.485 6  38498085.156          40.000        -769.817
  15516648.62215  24920224.033          34.000       -3734.980
  -2802670.984 6  24661219.036          36.000         682.110
  -4889414.33214  24330759.848          28.000        2474.428
 -14870103.338 7  22144579.992          44.000        1764.616
  -9335167.006 7  22860948.425          45.000        1894.737
   -882070.60314  25203445.429          26.000         -24.780
 16  4  1 18 50  0.0000000  0 11G04G25G29G31S20G02G05G16G26G21G23
 -13353663.764 8  21087225.318          48.000        1127.460
  16287885.024 7  22446191.039          44.000       -3575.648
   2975602.200 7  20467623.263          45.000       -2201.253
  -1777344.119 7  21014745.472          47.000       -1725.459
   4820925.597 6  38502484.862          40.000        -770.402
  15628832.30815  24941568.965          33.000       -3742.603
  -2822888.650 5  24657368.855          34.000         667.824
  -4963623.85015  24316631.907          33.000        2472.491
 -14922920.281 7  22134530.883          45.000        1756.919
  -9391855.771 7  22850160.491          45.000        1885.038
   -881006.97314  25203651.481          27.000         -44.201
 16  4  1 18 50 30.0000000  0 11G04G25G29G31S20G02G05G16G26G21G23
 -13387312.228 7  21080822.833          46.000        1116.000
  16395283.708 7  22466628.664          43.000       -3584.374
   3041846.668 7  20480229.964          44.000       -2214.548
  -1725285.294 7  21024654.002          46.000       -1744.988
   4844063.508 6  38506887.883          39.000        -771.352
  15741254.69415  24962963.001          33.000       -3750.031
  -2842636.206 5  24653607.339          33.000         650.532
  -5037757.84815  24302533.074          30.000        2470.461
 -14975501.974 7  22124526.010          45.000        1748.974
  -9448238.409 7  22839430.666          44.000        1874.528
   -879397.99514  25203954.400          29.000         -62.404
 16  4  1 18 51  0.0000000  0 11G04G25G29G31S20G02G05G16G26G21G23
 -13420616.478 7  21074486.153          47.000        1104.181
  16502940.534 7  22487116.389          44.000       -3592.785
   3108488.694 7  20492912.730          45.000       -2227.846
  -1672650.283 7  21034669.101          46.000       -1764.526
   4867219.751 6  38511293.365          40.000        -772.489
  15853913.609 5  24984404.084          34.000       -3757.567
  -2861911.638 6  24649942.147          36.000         634.570
  -5111814.76514  24288442.267          28.000        2466.877
 -15027847.426 7  22114563.419          45.000        1740.763
  -9504313.297 7  22828759.962          45.000        1863.922
   -877245.96713  25204350.328          21.000         -88.538
 16  4  1 18 51  1.9200000  0 11G04G25G29G31S20G02G05G16G26G21G23
 -13422736.472 7  21074082.320          47.000        1104.698
  16509839.085 7  22488429.256          44.000       -3592.248
   3112767.038 7  20493726.870          45.000       -2227.911
  -1669262.303 7  21035313.782          46.000       -1764.148
   4868702.381 6  38511575.501          40.000        -771.252
  15861131.545 5  24985778.149          34.000       -3757.560
  -2863129.465 6  24649711.194          36.000         635.149
  -5116551.96514  24287541.243          28.000        2467.943
 -15031189.705 7  22113927.132          45.000        1741.462
  -9507891.838 7  22828078.846          45.000        1864.354
   -877088.24413  25204380.604          19.000         -87.179
 16  4  1 18 51  3.8400000  0 11G04G20G25G29G31S20G02G05G16G26G21
 -13424857.308 7  21073678.994          47.000        1104.221
     -6504.74615  24931382.488          34.000        2064.601
  16516736.428 7  22489741.932          44.000       -3593.203
   3117044.724 7  20494541.150          45.000       -2228.842
  -1665874.230 7  21035958.394          46.000       -1765.640
   4870182.629 6  38511857.933          40.000        -771.415
  15868348.174 5  24987151.604          34.000       -3759.952
  -2864347.563 6  24649479.438          36.000         634.559
  -5121291.26514  24286639.294          29.000        2468.831
 -15034533.284 7  22113290.688          45.000        1740.813
  -9511471.372 7  22827397.607          45.000        1863.439
 16  4  1 18 51  5.7600000  0 11G04G20G25G29G31S20G02G05G16G26G21
 -13426975.293 7  21073275.702          47.000        1102.381
    -10469.025 5  24930626.999          34.000        2063.914
  16523636.250 7  22491054.712          43.000       -3594.130
   3121325.487 7  20495355.604          45.000       -2230.490
  -1662482.357 7  21036603.843          46.000       -1767.496
   4871664.059 6  38512140.313          40.000        -772.684
  15875567.229 5  24988525.477          34.000       -3761.384
  -2865562.277 6  24649248.869          36.000         632.001
  -5126028.76414  24285735.234          29.000        2466.990
 -15037874.455 7  22112654.593          45.000        1739.498
  -9515048.197 7  22826716.840          45.000        1862.380
 16  4  1 18 51  6.9600000  0 11G04G20G25G29G31S20G02G05G16G26G21
 -13428297.923 7  21073023.966          46.000        1101.393
    -12946.048 5  24930153.278          33.000        2063.009
  16527949.562 7  22491875.955          42.000       -3595.013
   3124002.178 7  20495865.326          44.000       -2231.522
  -1660360.836 7  21037007.327          45.000       -1768.442
   4872590.602 6  38512316.665          39.000        -772.862
  15880080.019 5  24989383.662          33.000       -3761.396
  -2866320.093 6  24649105.149          36.000         631.375
  -5128989.13915  24285173.355          30.000        2466.425
 -15039961.800 7  22112257.531          44.000        1738.895
  -9517282.672 7  22826291.666          44.000        1861.678
 16  4  1 18 51 30.0000000  0 11G04G20G25G29G31S20G02G05G16G26G21
 -13453564.630 7  21068213.901          46.000        1092.510
    -60443.279 5  24921114.886          34.000        2061.120
  16610865.108 7  22507652.505          43.000       -3601.437
   3175537.395 7  20505672.401          43.000       -2241.418
  -1619429.000 7  21044795.901          46.000       -1783.747
   4890405.313 6  38515707.051          40.000        -772.555
  15966817.872 5  25005889.632          34.000       -3768.982
  -2880702.623 6  24646369.810          37.000         619.778
  -5185784.19716  24274355.843          36.000        2463.936
 -15079944.579 7  22104649.271          46.000        1732.681
  -9560068.205 7  22818150.703          45.000        1853.221
 16  4  1 18 52  0.0000000  0 12G04G20G25G29G31S20G02G05G16G26G21G23
 -13486163.091 7  21062012.338          47.000        1080.332
   -122175.273 5  24909369.563          35.000        2054.519
  16719048.514 7  22528238.771          43.000       -3611.247
   3242983.111 7  20518503.145          43.000       -2255.237
  -1565630.454 7  21055033.891          47.000       -1802.859
   4913613.908 6  38520122.846          40.000        -774.843
  16079957.075 5  25027418.698          33.000       -3774.088
  -2899014.627 5  24642885.805          35.000         601.964
  -5259671.787 6  24260293.515          36.000        2461.074
 -15131799.989 7  22094783.145          47.000        1724.002
  -9615508.940 7  22807601.349          46.000        1842.429
   -871578.54714  25205486.670          26.000        -118.463
 16  4  1 18 52 30.0000000  0 12G04G20G25G29G31S20G02G05G16G26G21G23
 -13518408.081 7  21055876.737          47.000        1068.637
   -183764.200 5  24897649.421          34.000        2050.856
  16827492.617 7  22548875.713          43.000       -3619.126
   3310827.106 7  20531414.404          43.000       -2268.325
  -1511252.650 8  21065382.830          48.000       -1822.210
   4936850.186 6  38524545.481          40.000        -774.638
  16193332.16415  25048988.790          31.000       -3784.824
  -2916843.650 5  24639499.468          31.000         587.065
  -5333474.084 5  24246260.155          31.000        2458.256
 -15183409.395 7  22084960.138          46.000        1716.410
  -9670630.990 7  22797112.476          46.000        1832.036
   -867793.60414  25206241.724          29.000        -135.152
 16  4  1 18 53  0.0000000  0 12G04G20G25G29G31S20G02G05G16G26G21G23
 -13550311.835 7  21049804.619          47.000        1058.082
   -245222.72415  24885955.088          30.000        2046.941
  16936182.309 7  22569558.845          43.000       -3626.597
   3379053.531 7  20544395.743          43.000       -2280.211
  -1456310.551 8  21075837.482          48.000       -1840.632
   4960097.585 6  38528969.391          40.000        -774.687
  16306925.84115  25070603.328          30.000       -3786.864
  -2934201.10215  24636173.823          30.000         571.392
  -5407203.82114  24232232.623          29.000        2457.403
 -15234785.482 7  22075183.532          46.000        1708.822
  -9725446.576 7  22786680.544          46.000        1822.234
   -863477.69715  25207061.500          32.000        -151.253
 16  4  1 18 53 30.0000000  0 11G04G25G29G31S20G02G05G16G26G21G23
 -13581875.372 8  21043799.336          48.000        1046.281
  17045114.481 7  22590287.313          42.000       -3635.331
   3447658.619 7  20557449.430          42.000       -2293.343
  -1400807.073 8  21086399.785          48.000       -1859.652
   4983353.045 6  38533394.626          40.000        -776.130
  16420734.09914  25092258.682          28.000       -3796.317
  -2951087.67916  24632971.970          37.000         554.936
  -5480863.79515  24218200.763          35.000        2454.898
 -15285928.965 7  22065452.732          46.000        1700.349
  -9779955.935 7  22776306.721          45.000        1811.677
   -858694.15415  25207955.510          31.000        -171.333
 16  4  1 18 54  0.0000000  0 11G04G25G29G31S20G02G05G16G26G21G23
 -13613088.452 7  21037855.181          46.000        1034.435
  17154296.925 7  22611064.868          43.000       -3643.831
   3516649.553 7  20570579.986          43.000       -2305.446
  -1344734.381 7  21097069.267          47.000       -1878.797
   5006624.140 6  38537822.898          40.000        -776.050
  16534762.97014  25113958.900          27.000       -3805.422
  -2967491.577 6  24629850.701          37.000         538.816
  -5554442.399 5  24204196.126          35.000        2451.240
 -15336829.605 7  22055764.197          45.000        1692.665
  -9834148.540 7  22765994.341          46.000        1801.193
   -853308.47415  25208987.289          35.000        -189.068
 16  4  1 18 54 30.0000000  0 11G04G25G29G31S20G02G05G16G26G21G23
 -13643954.972 7  21031984.788          47.000        1023.338
  17263723.418 7  22631888.772          44.000       -3651.349
   3586019.406 7  20583781.792          44.000       -2318.292
  -1288098.523 7  21107847.324          47.000       -1896.808
   5029902.781 6  38542252.217          40.000        -776.057
  16649005.45514  25135702.255          26.000       -3810.138
  -2983416.849 5  24626819.093          35.000         524.404
  -5627943.67515  24190214.715          30.000        2450.776
 -15387491.170 7  22046123.649          45.000        1684.805
  -9888027.927 7  22755741.710          46.000        1790.844
   -847388.67215  25210114.747          32.000        -205.873
 16  4  1 18 55  0.0000000  0 11G04G25G29G31S20G02G05G16G26G21G23
 -13674468.046 8  21026179.415          48.000        1011.143
  17373398.715 7  22652759.302          44.000       -3659.941
   3655772.103 7  20597057.167          45.000       -2330.968
  -1230895.130 7  21118731.845          46.000       -1916.280
   5053197.426 6  38546683.787          40.000        -777.000
  16763463.90013  25157473.775          21.000       -3824.560
  -2998856.096 5  24623877.544          32.000         505.174
  -5701362.12515  24176248.974          31.000        2444.684
 -15437906.439 7  22036532.277          46.000        1676.766
  -9941586.081 7  22745549.648          46.000        1779.942
   -840928.54415  25211340.329          32.000        -223.544
 16  4  1 18 55 30.0000000  0 11G04G25G29G31S20G02G05G16G26G21G23
 -13704629.959 7  21020437.979          47.000         999.793
  17483317.917 7  22673675.971          44.000       -3668.127
   3725902.287 7  20610399.865          43.000       -2343.832
  -1173128.721 7  21129724.051          46.000       -1935.027
   5076505.049 6  38551120.593          40.000        -776.535
  16878107.83613  25179308.430          23.000       -3817.094
  -3013810.206 5  24621040.139          35.000         490.377
  -5774699.70615  24162292.743          30.000        2446.108
 -15488077.895 7  22026983.797          46.000        1668.665
  -9994825.120 7  22735418.680          46.000        1769.639
   -833932.10315  25212668.883          32.000        -242.863
 16  4  1 18 56  0.0000000  0 12G04G20G25G29G31S20G02G05G16G26G21G23
 -13734435.030 8  21014767.549          48.000         987.349
   -611360.90315  24816356.133          33.000        2017.465
  17593484.402 7  22694639.790          44.000       -3676.824
   3796412.663 7  20623815.034          42.000       -2356.479
  -1114795.968 7  21140823.419          46.000       -1953.925
   5099828.804 6  38555556.665          40.000        -777.365
  16992982.53214  25201189.118          24.000       -3832.976
  -3028273.348 5  24618283.074          33.000         476.584
  -5847951.31714  24148361.973          28.000        2440.630
 -15537999.672 7  22017484.806          46.000        1659.687
 -10047739.014 7  22725350.375          46.000        1758.232
   -826394.62214  25214096.102          28.000        -259.575
 16  4  1 18 56 30.0000000  0 12G04G20G25G29G31S20G02G05G16G26G21G23
 -13763881.983 8  21009163.551          48.000         975.755
   -671781.537 6  24804856.946          36.000        2011.974
  17703897.136 7  22715650.812          44.000       -3684.600
   3867301.658 7  20637305.867          42.000       -2368.904
  -1055897.880 7  21152032.549          46.000       -1972.734
   5123166.677 6  38559999.263          40.000        -778.136
  17108077.31812  25223090.380          17.000       -3840.414
  -3042243.35214  24615619.822          29.000         453.528
  -5921115.63715  24134420.278          32.000        2436.557
 -15587670.394 7  22008031.866          47.000        1651.419
 -10100325.993 7  22715342.501          46.000        1747.481
   -818317.28214  25215631.808          28.000        -277.008
 16  4  1 18 57  0.0000000  0 12G04G20G25G29G31S20G02G05G16G26G21G23
 -13792966.158 8  21003629.615          48.000         963.404
   -732035.518 6  24793388.314          37.000        2005.424
  17814558.124 7  22736709.106          44.000       -3692.746
   3938570.396 7  20650868.002          43.000       -2381.748
   -996432.343 7  21163347.515          46.000       -1991.692
   5146523.306 6  38564443.938          40.000        -778.940
  17223331.39312  25245014.467          15.000       -3844.257
  -3055716.12615  24613062.405          30.000         441.897
  -5994189.108 5  24120512.769          31.000        2434.934
 -15637085.548 7  21998628.380          47.000        1643.003
 -10152581.245 7  22705398.442          46.000        1736.376
   -809693.75114  25217271.099          28.000        -296.081
 16  4  1 18 57 30.0000000  0 11G04G20G25G29G31S20G05G16G26G21G23
 -13821684.527 8  20998164.312          48.000         950.830
   -792118.946 6  24781957.514          38.000        2000.214
  17925468.049 7  22757815.197          45.000       -3701.323
   4010218.577 7  20664503.113          43.000       -2395.036
   -936399.098 7  21174773.900          47.000       -2010.294
   5169901.033 6  38568892.208          40.000        -779.634
  -3068687.73015  24610593.304          33.000         424.868
  -6067167.81514  24106632.744          29.000        2430.313
 -15686242.018 7  21989275.831          47.000        1633.874
 -10204501.574 7  22695519.577          46.000        1724.647
   -800524.11914  25219012.509          28.000        -316.107
 16  4  1 18 58  0.0000000  0 12G04G20G25G29G31S20G02G05G16G26G21G23
 -13850036.432 8  20992769.821          48.000         938.668
   -852029.472 6  24770557.775          39.000        1994.045
  18036625.405 7  22778966.745          44.000       -3709.699
   4082244.548 7  20678208.898          43.000       -2407.940
   -875799.528 7  21186305.405          47.000       -2029.406
   5193299.817 6  38573343.741          40.000        -779.871
  17454328.33312  25289053.442          16.000       -3864.095
  -3081156.934 6  24608223.128          36.000         408.545
  -6140052.70315  24092759.297          33.000        2427.880
 -15735138.759 7  21979970.223          46.000        1625.406
 -10256085.192 7  22685702.573          46.000        1713.878
   -790808.11114  25220864.762          29.000        -335.061
 16  4  1 18 58 30.0000000  0 12G04G20G25G29G31S20G02G05G16G26G21G23
 -13878024.358 8  20987442.828          48.000         927.008
   -911767.799 6  24759192.117          41.000        1989.071
  18148025.041 7  22800165.130          43.000       -3716.851
   4154642.057 7  20691987.765          44.000       -2418.419
   -814638.786 8  21197945.643          48.000       -2047.137
   5216711.406 6  38577800.073          40.000        -779.726
  17570153.18513  25311101.374          20.000       -3867.585
  -3093125.759 5  24605942.455          35.000         390.860
  -6212845.387 5  24078893.092          34.000        2426.150
 -15783778.432 7  21970712.987          46.000        1617.775
 -10307334.535 7  22675949.716          46.000        1703.535
   -780549.88215  25222822.362          31.000        -348.633
 16  4  1 18 59  0.0010000  0 12G04G20G25G29G31S20G02G05G16G26G21G23
 -13905651.702 7  20982185.828          47.000         914.441
   -971336.799 6  24747859.858          40.000        1981.931
  18259666.364 7  22821409.671          42.000       -3725.409
   4227408.747 7  20705833.867          43.000       -2431.837
   -752919.405 7  21209689.395          47.000       -2066.649
   5240136.396 6  38582258.377          40.000        -781.827
  17686271.01313  25333175.061          22.000       -3871.992
  -3104595.801 5  24603751.929          31.000         374.757
  -6285550.856 6  24065053.115          36.000        2422.587
 -15832164.511 7  21961508.730          47.000        1608.211
 -10358252.976 7  22666261.007          46.000        1691.025
   -769753.03415  25224880.441          35.000        -368.337
 16  4  1 18 59 30.0010000  0 12G04G20G25G29G31S20G02G05G16G26G21G23
 -13932904.592 8  20977001.560          48.000         901.753
  -1030718.844 6  24736560.388          38.000        1976.180
  18371551.338 7  22842702.339          42.000       -3733.743
   4300548.699 7  20719752.719          43.000       -2444.012
   -690635.913 7  21221541.548          47.000       -2085.735
   5263584.842 6  38586719.438          40.000        -782.281
  17802573.75713  25355327.136          18.000       -3880.436
  -3115554.289 6  24601679.942          36.000         356.679
  -6358153.171 6  24051234.846          36.000        2417.616
 -15880281.822 7  21952351.397          47.000        1599.244
 -10408825.083 7  22656638.067          46.000        1679.838
   -758406.856 5  25227043.867          34.000        -385.816
 16  4  1 19  0  0.0010000  0 10G04G20G25G29G31S20G05G16G26G21
 -13959786.976 7  20971884.930          47.000         889.781
  -1089917.899 6  24725295.383          38.000        1970.299
  18483677.950 7  22864042.246          43.000       -3741.664
   4374057.832 7  20733738.981          42.000       -2455.846
   -627792.347 7  21233500.199          46.000       -2103.868
   5287052.400 6  38591187.078          40.000        -782.160
  -3126004.607 6  24599690.269          37.000         341.012
  -6430658.068 5  24037437.273          35.000        2414.334
 -15928135.155 7  21943244.756          47.000        1590.565
 -10459055.512 7  22647079.396          47.000        1668.592
